类型;类别ID;类别;名称;地址;城市;区县;经度;纬度;开放时间;图片;img
12;208;儿童之家;开欣社区妇女儿童活动中心;杭州市萧山区宁围街道开欣社区通惠北路与建设一路红路灯口雅棠轩小区1871-1873号;杭州市;萧山区;120.283943;30.193591;周一至周日8:30-17：00;/whyx20221018/99/7907.jpg;https://fxhz.wgly.hangzhou.gov.cn/oss/whyx20221018/99/7907.jpg
15;211;文化礼堂;文昌镇王家源村文化礼堂;杭州市淳安县文昌镇王家源村;杭州市;淳安县;119.230234;29.783364;09:00-17:00;/whyx20221018/99/14914.jpg;https://fxhz.wgly.hangzhou.gov.cn/oss/whyx20221018/99/14914.jpg
17;219;机房/广播站;机房;杭州市丁桥景园南苑24号;杭州市;钱塘区;120.233774;30.349645;不开放;/whyx20221018/98/7999.jpg;https://fxhz.wgly.hangzhou.gov.cn/oss/whyx20221018/98/7999.jpg
18;213;文化服务点/阅览室;公共数字文化服务点;杭州市西溪路618号2幢;杭州市;西湖区;120.0911273;30.2628683;nan;/whyx20221018/98/7962.jpg;https://fxhz.wgly.hangzhou.gov.cn/oss/whyx20221018/98/7962.jpg
16;212;文化家园;藕湖浜社区文化家园;杭州市萧山区城厢街道藕湖浜社区新桥园小区6幢;杭州市;萧山区;120.278089;30.156414;周一至周五8:30-11:00；13:30-16:30;/whyx20221018/98/7470.jpg;https://fxhz.wgly.hangzhou.gov.cn/oss/whyx20221018/98/7470.jpg
13;209;老年活动中心;月欣花苑老年活动室;杭州市临平区东湖街道月欣花苑小区;杭州市;临平区;120.277052;30.425447;周一至周日08:00-17:00;/whyx20221018/98/5168.jpg;https://fxhz.wgly.hangzhou.gov.cn/oss/whyx20221018/98/5168.jpg
3;200;文化活动室;余杭区文化馆;杭州市余杭区瓶窑镇花园路与崇北街交叉口;杭州市;余杭区;119.977467;30.375024;09:00-17:00;/whyx20221018/98/10698.jpg;https://fxhz.wgly.hangzhou.gov.cn/oss/whyx20221018/98/10698.jpg
16;212;文化家园;孔社区文化家园;杭州市萧山区临浦前孔社区文化家园;杭州市;萧山区;120.245622;30.048099;nan;/whyx20221018/97/8670.jpg;https://fxhz.wgly.hangzhou.gov.cn/oss/whyx20221018/97/8670.jpg
13;209;老年活动中心;叶家老年文化活动中心;建德市新安江街道叶家路145号;杭州市;建德市;119.265933;29.465173;全天开放;/whyx20221018/97/5796.jpg;https://fxhz.wgly.hangzhou.gov.cn/oss/whyx20221018/97/5796.jpg
16;212;文化家园;曲院社区文化家园;杭州市西湖区北山街道曲院社区白沙泉46-1号;杭州市;西湖区;120.134618;30.262446;周一至周五;/whyx20221018/96/7528.jpg;https://fxhz.wgly.hangzhou.gov.cn/oss/whyx20221018/96/7528.jpg
15;211;文化礼堂;青山湖街道安村村文化礼堂;浙江省杭州市临安区青山湖街道安村村沃山脚安置小区;杭州市;临安区;119.751827;30.3175;08:30-20:00;/whyx20221018/96/15268.jpg;https://fxhz.wgly.hangzhou.gov.cn/oss/whyx20221018/96/15268.jpg
1;198;农家书屋;三墩镇厨房斗社区图书室;杭州市西湖区同仁家园同仁会馆4楼;杭州市;西湖区;120.07768;30.326198;周一至周五08:30-11:30 14:00-17:00;/whyx20221018/96/11415.jpg;https://fxhz.wgly.hangzhou.gov.cn/oss/whyx20221018/96/11415.jpg
1;198;农家书屋;东新街道沁苑社区图书馆;杭州市拱墅区东新街道沁苑社区图书馆;杭州市;拱墅区;120.165426;30.294769;nan;/whyx20221018/95/8771.jpg;https://fxhz.wgly.hangzhou.gov.cn/oss/whyx20221018/95/8771.jpg
2;199;文博场馆;岗古村村史馆;杭州市桐庐县凤川街道岗古村落桐常线凤川小学东侧约100米;杭州市;桐庐县;119.778958;29.80831;周一至周日8:30-17:00;/whyx20221018/95/6210.jpg;https://fxhz.wgly.hangzhou.gov.cn/oss/whyx20221018/95/6210.jpg
3;200;文化活动室;刀茅巷社区文化服务中心;环东公寓3幢底层刀茅巷社区;杭州市;拱墅区;120.182;30.2706;9:00-17:00;/whyx20221018/95/6058.jpg;https://fxhz.wgly.hangzhou.gov.cn/oss/whyx20221018/95/6058.jpg
15;211;文化礼堂;大同镇潘村村文化礼堂;杭州市建德市大同镇潘村;杭州市;建德市;119.065596;29.318333;周一到周日09:00-17:00;/whyx20221018/95/16246.jpg;https://fxhz.wgly.hangzhou.gov.cn/oss/whyx20221018/95/16246.jpg
15;211;文化礼堂;洞桥镇贤德村文化礼堂;富阳区洞桥镇贤德村何村坞;杭州市;富阳区;119.56275;30.03276;08:00-20:00;/whyx20221018/95/14873.jpg;https://fxhz.wgly.hangzhou.gov.cn/oss/whyx20221018/95/14873.jpg
3;200;文化活动室;小营街道姚园寺巷社区文化活动中心;建国南苑39幢;杭州市;上城区;119.94521;30.2728;08:30-11:00;/whyx20221018/94/8905.jpg;https://fxhz.wgly.hangzhou.gov.cn/oss/whyx20221018/94/8905.jpg
17;219;机房/广播站;桐庐调频广播发射台;杭州市桐庐县舞象山;杭州市;桐庐县;119.660878;29.80196816;不开放;/whyx20221018/94/8039.jpg;https://fxhz.wgly.hangzhou.gov.cn/oss/whyx20221018/94/8039.jpg
17;219;机房/广播站;机房;杭州市华丰路390号;杭州市;拱墅区;120.194083;30.34092;不开放;/whyx20221018/94/8002.jpg;https://fxhz.wgly.hangzhou.gov.cn/oss/whyx20221018/94/8002.jpg
14;210;文体中心;百江镇文体中心;桐庐县百江镇紫燕路777号;杭州市;桐庐县;119.357833;29.848254;周一至周日8:30-16:30;/whyx20221018/94/6363.jpg;https://fxhz.wgly.hangzhou.gov.cn/oss/whyx20221018/94/6363.jpg
1;198;农家书屋;新塘街道裘江新村农家书屋;杭州市萧山区新塘街道裘江新村村委会3楼;杭州市;萧山区;120.299107;30.135826;周一至周日08:00-16:00;/whyx20221018/94/11435.jpg;https://fxhz.wgly.hangzhou.gov.cn/oss/whyx20221018/94/11435.jpg
3;200;文化活动室;如意社区文化活动室;杭州市富阳区如意社区文化活动室;杭州市;富阳区;119.7308617;29.9752535;nan;/whyx20221018/93/8791.jpg;https://fxhz.wgly.hangzhou.gov.cn/oss/whyx20221018/93/8791.jpg
3;200;文化活动室;虎啸杏社区文化活动室;杭州市富阳区虎啸杏社区文化活动室;杭州市;富阳区;119.9727839;30.16499141;nan;/whyx20221018/93/8566.jpg;https://fxhz.wgly.hangzhou.gov.cn/oss/whyx20221018/93/8566.jpg
18;213;文化服务点/阅览室;公共数字文化服务点;杭州市留和路129号的横街综合办公楼二楼205室;杭州市;临安区;120.171945;30.2637;nan;/whyx20221018/93/7967.jpg;https://fxhz.wgly.hangzhou.gov.cn/oss/whyx20221018/93/7967.jpg
14;210;文体中心;杭州钱江经济开发区紫创未来谷党群驿站（职工之家）;余杭区仁和街道仁河大道516号（紫创未来谷内）;杭州市;余杭区;120.094658;30.4306;周一至周五上午9点至下午5点;/whyx20221018/93/5574.jpg;https://fxhz.wgly.hangzhou.gov.cn/oss/whyx20221018/93/5574.jpg
3;200;文化活动室;彭埠街道红五月社区文体活动中心;杭州市上城区彭埠街道红五月社区文体活动中心;杭州市;上城区;120.2506922;30.3045424;nan;/whyx20221018/92/8756.jpg;https://fxhz.wgly.hangzhou.gov.cn/oss/whyx20221018/92/8756.jpg
17;219;机房/广播站;机房;杭州市体育场路178号浙报大院C座29层2903房间;杭州市;拱墅区;120.174585;30.271021;不开放;/whyx20221018/92/8019.jpg;https://fxhz.wgly.hangzhou.gov.cn/oss/whyx20221018/92/8019.jpg
15;211;文化礼堂;大同镇城山村文化礼堂;杭州市建德市大同镇城山村;杭州市;建德市;119.069262;29.275716;周一到周日09:00-17:00;/whyx20221018/92/16261.jpg;https://fxhz.wgly.hangzhou.gov.cn/oss/whyx20221018/92/16261.jpg
15;211;文化礼堂;新登镇五里桥村文化礼堂;杭州市富阳区新登镇五里桥村白家;杭州市;富阳区;119.71761;29.95891;08:00-20:00;/whyx20221018/92/14902.jpg;https://fxhz.wgly.hangzhou.gov.cn/oss/whyx20221018/92/14902.jpg
15;211;文化礼堂;万市镇杨家村文化礼堂;富阳区万市镇杨家村铜王殿1号;杭州市;富阳区;119.4832;30.10068;08:00-20:00;/whyx20221018/92/14777.jpg;https://fxhz.wgly.hangzhou.gov.cn/oss/whyx20221018/92/14777.jpg
16;212;文化家园;乾潭镇马鞍岭社区文化家园;杭州市建德市乾潭镇马鞍岭社区文化家园;杭州市;建德市;119.543554;29.619007;nan;/whyx20221018/91/8603.jpg;https://fxhz.wgly.hangzhou.gov.cn/oss/whyx20221018/91/8603.jpg
14;210;文体中心;进化镇文化站;杭州市萧山区塘湄线与鹿鸣西路交叉口西北260米;杭州市;萧山区;120.296827;30.011642;nan;/whyx20221018/91/8229.jpg;https://fxhz.wgly.hangzhou.gov.cn/oss/whyx20221018/91/8229.jpg
16;212;文化家园;南星社区社区文化家园;杭州市临平区星桥北路48号;杭州市;临平区;120.258455;30.39795;周一至周日08:30-16:30;/whyx20221018/91/5200.jpg;https://fxhz.wgly.hangzhou.gov.cn/oss/whyx20221018/91/5200.jpg
2;199;文博场馆;天福龟鳖博物馆;杭州市萧山区通惠北路35号;杭州市;萧山区;120.288706;30.209218;nan;/whyx20221018/91/14530.jpg;https://fxhz.wgly.hangzhou.gov.cn/oss/whyx20221018/91/14530.jpg
5;202;剧院;太阳剧场;杭州市拱墅区东文街90号新天地;杭州市;拱墅区;120.180033;30.322663;nan;/whyx20221018/90/7834.jpg;https://fxhz.wgly.hangzhou.gov.cn/oss/whyx20221018/90/7834.jpg
15;211;文化礼堂;大同镇上马村文化礼堂;杭州市建德市大同镇上马村;杭州市;建德市;119.045402;29.260522;周一到周日09:00-17:00;/whyx20221018/90/16241.jpg;https://fxhz.wgly.hangzhou.gov.cn/oss/whyx20221018/90/16241.jpg
2;199;文博场馆;诸家村断龙非遗馆;杭州市建德市诸家村断龙非遗馆;杭州市;建德市;119.0428457;29.33038279;nan;/whyx20221018/9/9529.jpg;https://fxhz.wgly.hangzhou.gov.cn/oss/whyx20221018/9/9529.jpg
3;200;文化活动室;俞章社区文体中心;杭州市上城区笕桥街道俞章社区文体中心;杭州市;上城区;120.204346;30.324278;nan;/whyx20221018/9/8599.jpg;https://fxhz.wgly.hangzhou.gov.cn/oss/whyx20221018/9/8599.jpg
3;200;文化活动室;东坡路社区文化活动室;杭州市上城区湖滨街道东坡路社区文化活动室;杭州市;上城区;120.273033;30.161205;nan;/whyx20221018/9/8562.jpg;https://fxhz.wgly.hangzhou.gov.cn/oss/whyx20221018/9/8562.jpg
19;214;公共阅报栏;杭州市钱塘区闸口路新湾文化中心阅报栏;杭州市钱塘区新湾街道闸口路90号;杭州市;钱塘区;120.544823;30.281212;全天开放;/whyx20221018/9/7657.jpg;https://fxhz.wgly.hangzhou.gov.cn/oss/whyx20221018/9/7657.jpg
16;212;文化家园;太平弄社区文化家园;杭州市萧山区城厢街道太平弄社区8号;杭州市;萧山区;120.266363;30.1592;周一至周五上午8:30-11:30下午1：30-4：30;/whyx20221018/9/7479.jpg;https://fxhz.wgly.hangzhou.gov.cn/oss/whyx20221018/9/7479.jpg
14;210;文体中心;康桥街道文体活动中心;杭州市拱墅区康桥街道康桥路296号;杭州市;拱墅区;120.147326;30.355994;周一至周五9：00-16:00;/whyx20221018/9/6126.jpg;https://fxhz.wgly.hangzhou.gov.cn/oss/whyx20221018/9/6126.jpg
15;211;文化礼堂;大同镇丰畈村文化礼堂;杭州市建德市大同镇丰畈村葫芦庄自然村;杭州市;建德市;119.076853;29.292942;周一到周日09:00-17:00;/whyx20221018/9/16259.jpg;https://fxhz.wgly.hangzhou.gov.cn/oss/whyx20221018/9/16259.jpg
15;211;文化礼堂;富春街道西邮村文化礼堂;杭州市富阳区富春街道西邮村1号;杭州市;富阳区;119.86545;30.04998;08:00-20:00;/whyx20221018/9/14897.jpg;https://fxhz.wgly.hangzhou.gov.cn/oss/whyx20221018/9/14897.jpg
15;211;文化礼堂;银湖街道新常村文化礼堂;杭州市富阳区银湖街道新常村大山脚109号;杭州市;富阳区;119.96635;30.13026;08:00-20:00;/whyx20221018/9/14860.jpg;https://fxhz.wgly.hangzhou.gov.cn/oss/whyx20221018/9/14860.jpg
17;219;机房/广播站;皋亭山发射台;杭州市南山林场;杭州市;余杭区;120.2828624;30.42881688;不开放;/whyx20221018/89/8034.jpg;https://fxhz.wgly.hangzhou.gov.cn/oss/whyx20221018/89/8034.jpg
9;205;体育设施;加德社区百姓健身房;金城路333号加州阳光会所;杭州市;萧山区;120.250577;30.184462;nan;/whyx20221018/89/6887.jpg;https://fxhz.wgly.hangzhou.gov.cn/oss/whyx20221018/89/6887.jpg
14;210;文体中心;千岛湖镇综合文化站;淳安县千岛湖镇排岭南路54号;杭州市;淳安县;119.0406;29.601319;08:30-17:00;/whyx20221018/89/6395.jpg;https://fxhz.wgly.hangzhou.gov.cn/oss/whyx20221018/89/6395.jpg
3;200;文化活动室;云水社区文化活动室;杭州市富阳区云水社区文化活动室;杭州市;富阳区;120.2730335;30.16120463;nan;/whyx20221018/88/8972.jpg;https://fxhz.wgly.hangzhou.gov.cn/oss/whyx20221018/88/8972.jpg
3;200;文化活动室;东平巷社区文化活动室;杭州市上城区湖滨街道东平巷社区文化活动室;杭州市;上城区;120.16581;30.251335;nan;/whyx20221018/88/8561.jpg;https://fxhz.wgly.hangzhou.gov.cn/oss/whyx20221018/88/8561.jpg
15;211;文化礼堂;大同镇枫树岭村文化礼堂;杭州市建德市大同镇田长线靠近枫树底村;杭州市;建德市;119.092334;29.3469;周一到周日09:00-17:00;/whyx20221018/88/16258.jpg;https://fxhz.wgly.hangzhou.gov.cn/oss/whyx20221018/88/16258.jpg
15;211;文化礼堂;湍口镇湍口村文化礼堂;浙江省杭州市临安区湍口镇湍口村老街51号;杭州市;临安区;119.161295;30.039544;08:00-18:30;/whyx20221018/88/14979.jpg;https://fxhz.wgly.hangzhou.gov.cn/oss/whyx20221018/88/14979.jpg
1;198;农家书屋;浙江新世界国际旅游股份有限公司职工书屋;杭州市拱墅区武林街道凤起路361号;杭州市;拱墅区;120.168415;30.264224;周一至周五;/whyx20221018/88/13134.jpg;https://fxhz.wgly.hangzhou.gov.cn/oss/whyx20221018/88/13134.jpg
3;200;文化活动室;明月桥社区文化活动中心;杭州市上城区明月桥社区文化活动中心;杭州市;上城区;120.2163572;30.29112623;nan;/whyx20221018/87/8724.jpg;https://fxhz.wgly.hangzhou.gov.cn/oss/whyx20221018/87/8724.jpg
16;212;文化家园;新明社区文化家园;杭州市余杭区中泰街道新明社区文化家园;杭州市;余杭区;119.955126;30.244566;08:30-17:00;/whyx20221018/87/8344.jpg;https://fxhz.wgly.hangzhou.gov.cn/oss/whyx20221018/87/8344.jpg
17;219;机房/广播站;机房;杭州市拱墅区古运路110、112、114、116号;杭州市;拱墅区;120.1278212;30.30776516;不开放;/whyx20221018/87/8014.jpg;https://fxhz.wgly.hangzhou.gov.cn/oss/whyx20221018/87/8014.jpg
18;213;文化服务点/阅览室;公共数字文化服务点;杭州市东清巷72-1;杭州市;拱墅区;120.165937;30.26402195;nan;/whyx20221018/87/7990.jpg;https://fxhz.wgly.hangzhou.gov.cn/oss/whyx20221018/87/7990.jpg
18;213;文化服务点/阅览室;公共数字文化服务点;杭州市复兴路387、389号清河家园底层;杭州市;上城区;120.153447;30.20849024;nan;/whyx20221018/87/7987.png;https://fxhz.wgly.hangzhou.gov.cn/oss/whyx20221018/87/7987.png
2;199;文博场馆;杭州神博农家博物苑;杭州市萧山区宁围镇顺坝村402号;杭州市;萧山区;120.299747;30.266141;周一至周日08:30-17:00;/whyx20221018/87/14527.jpg;https://fxhz.wgly.hangzhou.gov.cn/oss/whyx20221018/87/14527.jpg
16;212;文化家园;彩虹社区文化公园;杭州市富阳区彩虹社区文化公园;杭州市;富阳区;119.7212695;29.9163559;nan;/whyx20221018/86/9058.jpg;https://fxhz.wgly.hangzhou.gov.cn/oss/whyx20221018/86/9058.jpg
18;213;文化服务点/阅览室;公共数字文化服务点;杭州市滨江区浦沿街道钱塘景苑11幢1单元1201室;杭州市;滨江区;120.157401;30.185486;nan;/whyx20221018/86/7955.jpg;https://fxhz.wgly.hangzhou.gov.cn/oss/whyx20221018/86/7955.jpg
14;210;文体中心;新街街道文体服务中心;杭州市萧山区新街街道戚枫路61号;杭州市;萧山区;120.342322;30.194245;周一至周日8：30-11：30；13：00-17：00；17：30-19：32周一上午闭馆;/whyx20221018/86/7463.jpg;https://fxhz.wgly.hangzhou.gov.cn/oss/whyx20221018/86/7463.jpg
14;210;文体中心;分水镇制笔文化馆;分水镇玉华西路315号文体中心内;杭州市;桐庐县;119.43;29.93;周一至周日8:30-17:00;/whyx20221018/86/6202.jpg;https://fxhz.wgly.hangzhou.gov.cn/oss/whyx20221018/86/6202.jpg
15;211;文化礼堂;大同镇万兴村文化礼堂;杭州市建德市大同镇万兴村坞石桥自然村;杭州市;建德市;119.05791;29.27473;周一到周日09:00-17:00;/whyx20221018/86/16238.jpg;https://fxhz.wgly.hangzhou.gov.cn/oss/whyx20221018/86/16238.jpg
16;212;文化家园;九堡街道新江花园社区图书室;杭州市上城区九堡街道新江花园社区活动中心;杭州市;上城区;120.279441;30.305756;09:00-11:00;/whyx20221018/85/8663.jpg;https://fxhz.wgly.hangzhou.gov.cn/oss/whyx20221018/85/8663.jpg
15;211;文化礼堂;新街街道盛东村文化礼堂;杭州市萧山区新街街道盛东村村委;杭州市;萧山区;120.334746;30.208241;周一至周日9:00-17:00;/whyx20221018/85/14846.jpg;https://fxhz.wgly.hangzhou.gov.cn/oss/whyx20221018/85/14846.jpg
2;199;文博场馆;魏风江纪念馆;杭州市萧山区魏风江纪念馆;杭州市;萧山区;120.4889269;30.28575839;nan;/whyx20221018/84/9382.jpg;https://fxhz.wgly.hangzhou.gov.cn/oss/whyx20221018/84/9382.jpg
16;212;文化家园;文源社区文化家园;杭州市萧山区新塘街道文源社区文化家园;杭州市;萧山区;120.276329;30.149643;nan;/whyx20221018/84/8851.jpg;https://fxhz.wgly.hangzhou.gov.cn/oss/whyx20221018/84/8851.jpg
18;213;文化服务点/阅览室;公共数字文化服务点;杭州市江南大道4320号;杭州市;滨江区;120.151196;30.185393;nan;/whyx20221018/84/7975.jpg;https://fxhz.wgly.hangzhou.gov.cn/oss/whyx20221018/84/7975.jpg
11;207;青少年宫;建德市青少年活动中心乾潭分部;乾潭镇万乐路118号;杭州市;建德市;119.550684;29.618217;周六至周日8:30--17:00;/whyx20221018/84/5977.jpg;https://fxhz.wgly.hangzhou.gov.cn/oss/whyx20221018/84/5977.jpg
14;210;文体中心;建德市梅城镇综合文化站;建德市梅城镇总府社区府前街52号;杭州市;建德市;119.503268;29.541507;08:30-17:00;/whyx20221018/84/5940.jpg;https://fxhz.wgly.hangzhou.gov.cn/oss/whyx20221018/84/5940.jpg
2;199;文博场馆;红毛狮子非遗传承馆;杭州市临安区红毛狮子非遗传承馆;杭州市;临安区;119.159156;30.047275;09:00-17:00;/whyx20221018/83/9165.jpg;https://fxhz.wgly.hangzhou.gov.cn/oss/whyx20221018/83/9165.jpg
11;207;青少年宫;萧山区青少年宫临浦分宫;杭州市临浦镇文化创意大厦;杭州市;萧山区;120.246637;30.047378;nan;/whyx20221018/83/7859.jpg;https://fxhz.wgly.hangzhou.gov.cn/oss/whyx20221018/83/7859.jpg
15;211;文化礼堂;大同镇胡村源村文化礼堂;杭州市建德市大同镇胡村源村胡村源自然村;杭州市;建德市;119.129189;29.334472;周一到周日09:00-17:00;/whyx20221018/83/16253.jpg;https://fxhz.wgly.hangzhou.gov.cn/oss/whyx20221018/83/16253.jpg
15;211;文化礼堂;富春街道宵井村文化礼堂;杭州市富阳区富春街道宵井村庙干1号;杭州市;富阳区;119.82487;30.02851;08:00-20:00;/whyx20221018/83/14866.jpg;https://fxhz.wgly.hangzhou.gov.cn/oss/whyx20221018/83/14866.jpg
15;211;文化礼堂;杨村桥镇路边村文化礼堂;杭州市建德市杨村桥镇路边村;杭州市;建德市;119.481704;29.589044;周一至周日9:00-17:00;/whyx20221018/83/14785.jpg;https://fxhz.wgly.hangzhou.gov.cn/oss/whyx20221018/83/14785.jpg
1;198;农家书屋;双浦镇白鸟村农家书屋;杭州市西湖区白鸟村文化礼堂;杭州市;西湖区;120.104598;30.11;周一至周六8:30-17:00;/whyx20221018/83/12026.jpg;https://fxhz.wgly.hangzhou.gov.cn/oss/whyx20221018/83/12026.jpg
1;198;农家书屋;仓前街道宋家山社区图书室;杭州市余杭区仓前街道宋家山社区图书室;杭州市;余杭区;120.01147;30.27905564;nan;/whyx20221018/82/9061.jpg;https://fxhz.wgly.hangzhou.gov.cn/oss/whyx20221018/82/9061.jpg
3;200;文化活动室;九堡街道和华社区文化活动室;杭州市上城区九堡街道和华社区文化活动室;杭州市;上城区;120.2614264;30.32504941;09:00-11:00;/whyx20221018/82/8648.jpg;https://fxhz.wgly.hangzhou.gov.cn/oss/whyx20221018/82/8648.jpg
18;213;文化服务点/阅览室;公共数字文化服务点;杭州市江城路417-1;杭州市;上城区;120.173493;30.230781;nan;/whyx20221018/82/7995.jpg;https://fxhz.wgly.hangzhou.gov.cn/oss/whyx20221018/82/7995.jpg
2;199;文博场馆;国学馆;杭州市临安区国学馆;杭州市;临安区;119.179367;30.047503;09:00-17:00;/whyx20221018/81/9145.jpg;https://fxhz.wgly.hangzhou.gov.cn/oss/whyx20221018/81/9145.jpg
3;200;文化活动室;蓝天社区文化活动室;杭州市上城区闸弄口街道蓝天社区文化活动室;杭州市;上城区;120.183538;30.287755;nan;/whyx20221018/81/8984.jpg;https://fxhz.wgly.hangzhou.gov.cn/oss/whyx20221018/81/8984.jpg
5;202;剧院;杂技总团剧场;杭州市拱墅区沈塘桥路18号;杭州市;拱墅区;120.151919;30.281009;周一至周五 09:00-15:00;/whyx20221018/81/7842.jpg;https://fxhz.wgly.hangzhou.gov.cn/oss/whyx20221018/81/7842.jpg
13;209;老年活动中心;海龙村建新老年活动中心;杭州市临安区潜川镇海龙村方家;杭州市;临安区;119.41879;30.108218;全天开放;/whyx20221018/81/4838.jpg;https://fxhz.wgly.hangzhou.gov.cn/oss/whyx20221018/81/4838.jpg
15;211;文化礼堂;大同镇永平村文化礼堂;杭州市建德市大同镇永平村九山湖自然村;杭州市;建德市;120.232578;30.109913;周一到周日09:00-17:00;/whyx20221018/81/16233.jpg;https://fxhz.wgly.hangzhou.gov.cn/oss/whyx20221018/81/16233.jpg
1;198;农家书屋;靖江街道靖港村农家书屋;杭州市萧山区靖江街道靖港家园268号;杭州市;萧山区;120.477381;30.238442;周一至周五8:00-11:00；13:00-17：00;/whyx20221018/80/11628.jpg;https://fxhz.wgly.hangzhou.gov.cn/oss/whyx20221018/80/11628.jpg
16;212;文化家园;邻动秀水文化家园;杭州市萧山区邻动秀水文化家园;杭州市;萧山区;119.103806;30.235039;nan;/whyx20221018/8/8679.jpg;https://fxhz.wgly.hangzhou.gov.cn/oss/whyx20221018/8/8679.jpg
17;219;机房/广播站;机房;杭州市上塘路181号朝晖泵站;杭州市;拱墅区;120.1613086;30.28778354;不开放;/whyx20221018/8/8015.jpg;https://fxhz.wgly.hangzhou.gov.cn/oss/whyx20221018/8/8015.jpg
14;210;文体中心;楼塔镇综合文化站;杭州市萧山区楼塔镇文化广播站;杭州市;萧山区;120.134277;29.90584;周一至周日9：00-17：00;/whyx20221018/8/6868.jpg;https://fxhz.wgly.hangzhou.gov.cn/oss/whyx20221018/8/6868.jpg
3;200;文化活动室;玉皇山社区文化活动室;杭州市上城区玉皇山社区文化活动室;杭州市;上城区;120.1461551;30.20907138;nan;/whyx20221018/79/8964.jpg;https://fxhz.wgly.hangzhou.gov.cn/oss/whyx20221018/79/8964.jpg
11;207;青少年宫;萧山区青少年宫瓜沥分宫;杭州市萧山区东灵路123-124号;杭州市;萧山区;120.457882;30.176988;nan;/whyx20221018/79/7862.jpg;https://fxhz.wgly.hangzhou.gov.cn/oss/whyx20221018/79/7862.jpg
16;212;文化家园;南门江社区文化家园;杭州市萧山区城厢街道南门江住宅区16-1;杭州市;萧山区;120.262323;30.154122;周一至周五上午8:30-11:30下午1：30-5:00;/whyx20221018/79/7488.jpg;https://fxhz.wgly.hangzhou.gov.cn/oss/whyx20221018/79/7488.jpg
13;209;老年活动中心;红山农场居家养老服务中心;杭州市萧山区红山农场萧清大道4115号;杭州市;萧山区;120.361616;30.230108;周一至周五8:00--16:30;/whyx20221018/79/7156.jpg;https://fxhz.wgly.hangzhou.gov.cn/oss/whyx20221018/79/7156.jpg
16;212;文化家园;吴家墩社区文化家园;杭州市拱墅区康桥街道吴家墩社区东苑151-152号;杭州市;拱墅区;120.158623;30.366909;09:00-16:00;/whyx20221018/79/6135.jpg;https://fxhz.wgly.hangzhou.gov.cn/oss/whyx20221018/79/6135.jpg
1;198;农家书屋;浙江卓锦环保科技股份有限公司职工书屋;杭州市拱墅区绍兴路536号三立时代广场18楼;杭州市;拱墅区;120.158379;30.309888;nan;/whyx20221018/79/13142.jpg;https://fxhz.wgly.hangzhou.gov.cn/oss/whyx20221018/79/13142.jpg
3;200;文化活动室;金海社区文化活动中心;杭州市上城区九堡街道金海社区文化活动中心;杭州市;上城区;120.263712;30.312978;09:00-11:00;/whyx20221018/78/8651.jpg;https://fxhz.wgly.hangzhou.gov.cn/oss/whyx20221018/78/8651.jpg
3;200;文化活动室;闲创社区文化活动室;杭州市余杭区闲林街道闲创社区文化活动室;杭州市;余杭区;120.01147;30.279056;nan;/whyx20221018/78/8336.jpg;https://fxhz.wgly.hangzhou.gov.cn/oss/whyx20221018/78/8336.jpg
17;219;机房/广播站;机房;杭州市钱塘区裕园公寓9幢（东）206室;杭州市;上城区;120.3398745;30.30618475;不开放;/whyx20221018/78/8006.jpg;https://fxhz.wgly.hangzhou.gov.cn/oss/whyx20221018/78/8006.jpg
5;202;剧院;临平小百花越剧艺术中心;杭州市浙江省临平区为民弄8号;杭州市;临平区;120.298087;30.42147;nan;/whyx20221018/78/7827.jpg;https://fxhz.wgly.hangzhou.gov.cn/oss/whyx20221018/78/7827.jpg
13;209;老年活动中心;北干一苑社区老年活动室;杭州市萧山区北干街道北干一苑路102号;杭州市;萧山区;120.269437;30.174236;由居民自行协商决定;/whyx20221018/78/6903.jpg;https://fxhz.wgly.hangzhou.gov.cn/oss/whyx20221018/78/6903.jpg
15;211;文化礼堂;大慈岩镇吴山村文化礼堂;杭州市建德市大慈岩镇吴山村;杭州市;建德市;119.252061;29.29602;周一到周日09:00-17:00;/whyx20221018/78/16285.jpg;https://fxhz.wgly.hangzhou.gov.cn/oss/whyx20221018/78/16285.jpg
15;211;文化礼堂;万市镇新民村文化礼堂;富阳区万市镇新民村徐家1号;杭州市;富阳区;119.54083;30.10107;08:00-20:00;/whyx20221018/78/14834.jpg;https://fxhz.wgly.hangzhou.gov.cn/oss/whyx20221018/78/14834.jpg
3;200;文化活动室;复兴街社区文化活动室;杭州市上城区复兴街社区文化活动室;杭州市;上城区;120.1650049;30.21236543;nan;/whyx20221018/77/8489.jpg;https://fxhz.wgly.hangzhou.gov.cn/oss/whyx20221018/77/8489.jpg
17;219;机房/广播站;发射台;杭州市淳安县千岛湖镇知林巷6号;杭州市;淳安县;119.0362599;29.60104164;不开放;/whyx20221018/77/8041.jpg;https://fxhz.wgly.hangzhou.gov.cn/oss/whyx20221018/77/8041.jpg
18;213;文化服务点/阅览室;公共数字文化服务点;杭州市翠苑五区20-101室;杭州市;西湖区;120.117082;30.28643549;nan;/whyx20221018/77/7963.jpg;https://fxhz.wgly.hangzhou.gov.cn/oss/whyx20221018/77/7963.jpg
12;208;儿童之家;金泰苑社区婴幼儿成长驿站;杭州市萧山区北干街道金泰苑社区金浦明苑7幢;杭州市;萧山区;120.260416;30.184372;周一至周五19:30-21:00，周六、周日：8:30-11:30、13:30-17:00;/whyx20221018/77/6894.jpg;https://fxhz.wgly.hangzhou.gov.cn/oss/whyx20221018/77/6894.jpg
1;198;农家书屋;常安镇东村坞村农家书屋;杭州市富阳区常安镇东村坞村便民服务中心东村坞村村委会;杭州市;富阳区;119.876619;29.867404;周一至周日09:00-17:00;/whyx20221018/77/12338.jpg;https://fxhz.wgly.hangzhou.gov.cn/oss/whyx20221018/77/12338.jpg
16;212;文化家园;石塔社区文化家园;杭州市萧山区临浦镇石塔社区文化家园;杭州市;萧山区;120.247105;30.035296;nan;/whyx20221018/76/8808.jpg;https://fxhz.wgly.hangzhou.gov.cn/oss/whyx20221018/76/8808.jpg
3;200;文化活动室;仁和仓社区文化服务中心;杭州市拱墅区仁和仓社区文化服务中心;杭州市;拱墅区;120.1806683;30.27179919;nan;/whyx20221018/76/8789.jpg;https://fxhz.wgly.hangzhou.gov.cn/oss/whyx20221018/76/8789.jpg
3;200;文化活动室;老房地社区文化活动室;杭州市拱墅区老房地社区文化活动室;杭州市;拱墅区;120.1647588;30.28846594;nan;/whyx20221018/76/8671.jpg;https://fxhz.wgly.hangzhou.gov.cn/oss/whyx20221018/76/8671.jpg
13;209;老年活动中心;徐家河社区老年活动中心;杭州市萧山区萧山区城厢街道通惠路159号;杭州市;萧山区;120.286537;30.153927;周一至周日8:30-11:30，13:30-17:00;/whyx20221018/76/7928.jpg;https://fxhz.wgly.hangzhou.gov.cn/oss/whyx20221018/76/7928.jpg
15;211;文化礼堂;新合乡新民村文化礼堂;杭州市桐庐县新合乡新民村高明自然村;杭州市;桐庐县;119.926157;29.686055;08:30:00-17:00:43;/whyx20221018/76/14854.jpg;https://fxhz.wgly.hangzhou.gov.cn/oss/whyx20221018/76/14854.jpg
3;200;文化活动室;美政桥社区文化活动室;杭州市上城区美政桥社区文化活动室;杭州市;上城区;120.1659857;30.21445415;nan;/whyx20221018/75/8717.jpg;https://fxhz.wgly.hangzhou.gov.cn/oss/whyx20221018/75/8717.jpg
18;213;文化服务点/阅览室;公共数字文化服务点;杭州市环丁路214-216号;杭州市;上城区;120.2293896;30.35060703;nan;/whyx20221018/75/7983.jpg;https://fxhz.wgly.hangzhou.gov.cn/oss/whyx20221018/75/7983.jpg
15;211;文化礼堂;太湖源镇临目村文化礼堂;浙江省杭州市临安区太湖源镇临目村外横渡神龙川牌坊处;杭州市;临安区;119.569825;30.363863;08:00-20:00;/whyx20221018/75/15070.jpg;https://fxhz.wgly.hangzhou.gov.cn/oss/whyx20221018/75/15070.jpg
5;202;剧院;千岛湖水之灵演艺中心;杭州市浙江省淳安县珍珠大道20号;杭州市;淳安县;119.107851;29.600658;周一至周日20:00 - 21:15;/whyx20221018/74/7830.jpg;https://fxhz.wgly.hangzhou.gov.cn/oss/whyx20221018/74/7830.jpg
16;212;文化家园;郎家浜社区文化家园;杭州市萧山区新塘街道郎家浜社区;杭州市;萧山区;120.303765;30.177605;周一至周日8：30-17：00;/whyx20221018/74/7070.jpg;https://fxhz.wgly.hangzhou.gov.cn/oss/whyx20221018/74/7070.jpg
15;211;文化礼堂;大同镇盘山村文化礼堂;杭州市建德市大同镇盘山村;杭州市;建德市;119.089395;29.273791;周一到周日09:00-17:00;/whyx20221018/74/16245.jpg;https://fxhz.wgly.hangzhou.gov.cn/oss/whyx20221018/74/16245.jpg
3;200;文化活动室;流水东苑社区综合文化服务中心;杭州市拱墅区流水东苑社区综合文化服务中心;杭州市;拱墅区;120.1806683;30.27179919;nan;/whyx20221018/73/8700.jpg;https://fxhz.wgly.hangzhou.gov.cn/oss/whyx20221018/73/8700.jpg
17;219;机房/广播站;杭州市富阳区融媒体中心;杭州市富阳区江滨西大道358号;杭州市;富阳区;119.9276757;30.01276135;不开放;/whyx20221018/73/8038.jpg;https://fxhz.wgly.hangzhou.gov.cn/oss/whyx20221018/73/8038.jpg
13;209;老年活动中心;杭南村居家养老服务中心;临平区运河街道杭南村杭南路8号;杭州市;临平区;120.266087;30.485573;周一至周日7:30-16:30;/whyx20221018/73/5046.jpg;https://fxhz.wgly.hangzhou.gov.cn/oss/whyx20221018/73/5046.jpg
15;211;文化礼堂;河庄街道围中村文化礼堂;杭州市钱塘区河庄街道围中村村委会;杭州市;钱塘区;120.448966;30.329711;08:30-20:30;/whyx20221018/73/15375.jpg;https://fxhz.wgly.hangzhou.gov.cn/oss/whyx20221018/73/15375.jpg
15;211;文化礼堂;太阳镇武村村文化礼堂;浙江省杭州市临安区太阳镇武村高桥头59号;杭州市;临安区;119.261007;30.260477;09:00-17:00;/whyx20221018/73/15045.jpg;https://fxhz.wgly.hangzhou.gov.cn/oss/whyx20221018/73/15045.jpg
2;199;文博场馆;周孝子祠（家谱馆）;杭州市富阳区周孝子祠（家谱馆）;杭州市;富阳区;119.9555052;30.05126987;nan;/whyx20221018/72/9526.jpg;https://fxhz.wgly.hangzhou.gov.cn/oss/whyx20221018/72/9526.jpg
3;200;文化活动室;涌金门社区文化活动室;杭州市上城区湖滨街道涌金门社区文化活动室;杭州市;上城区;120.158084;30.250424;nan;/whyx20221018/72/8565.jpg;https://fxhz.wgly.hangzhou.gov.cn/oss/whyx20221018/72/8565.jpg
18;213;文化服务点/阅览室;公共数字文化服务点;杭州市周浦街1号（双浦镇政府周浦办事中心） 双浦片;杭州市;西湖区;120.073117;30.089867;nan;/whyx20221018/72/7968.jpg;https://fxhz.wgly.hangzhou.gov.cn/oss/whyx20221018/72/7968.jpg
4;201;非遗馆;滨江区文化馆（非遗展示中心）;杭州市滨江区泰安路200号2号门5楼;杭州市;滨江区;120.210085;30.210025;周一至周日 9:00-17:00;/whyx20221018/72/40004.jpg;https://fxhz.wgly.hangzhou.gov.cn/oss/whyx20221018/72/40004.jpg
3;200;文化活动室;胜利社区综合文化服务中心;杭州市拱墅区胜利社区综合文化服务中心;杭州市;拱墅区;120.1806683;30.27179919;nan;/whyx20221018/71/8803.jpg;https://fxhz.wgly.hangzhou.gov.cn/oss/whyx20221018/71/8803.jpg
3;200;文化活动室;锦绣社区文化活动室;杭州市拱墅区米市巷街道锦绣社区活动室;杭州市;拱墅区;120.147284;30.289713;nan;/whyx20221018/71/8720.jpg;https://fxhz.wgly.hangzhou.gov.cn/oss/whyx20221018/71/8720.jpg
16;212;文化家园;羊山社区文化家园;杭州市余杭区羊山社区文化家园;杭州市;余杭区;119.976099;30.37769;nan;/whyx20221018/71/8348.jpg;https://fxhz.wgly.hangzhou.gov.cn/oss/whyx20221018/71/8348.jpg
17;219;机房/广播站;机房;杭州市西湖区转塘街道定北家园一区12号商铺;杭州市;西湖区;120.0650457;30.16173998;不开放;/whyx20221018/71/8018.jpg;https://fxhz.wgly.hangzhou.gov.cn/oss/whyx20221018/71/8018.jpg
15;211;文化礼堂;大同镇大同村文化礼堂;杭州市建德市大同镇古城山自然村;杭州市;建德市;119.109303;29.302917;周一到周日09:00-17:00;/whyx20221018/71/16260.jpg;https://fxhz.wgly.hangzhou.gov.cn/oss/whyx20221018/71/16260.jpg
15;211;文化礼堂;湖源乡新二村文化礼堂;富阳区湖源乡新二村;杭州市;富阳区;119.98713;29.82387;08:00-20:00;/whyx20221018/71/14859.jpg;https://fxhz.wgly.hangzhou.gov.cn/oss/whyx20221018/71/14859.jpg
18;213;文化服务点/阅览室;公共数字文化服务点;杭州市半山路160号;杭州市;拱墅区;120.1744012;30.35290658;nan;/whyx20221018/70/7988.jpg;https://fxhz.wgly.hangzhou.gov.cn/oss/whyx20221018/70/7988.jpg
17;219;机房/广播站;伟民村广播电视播出传输覆盖设施;杭州市萧山区河上镇长春路8-1号;杭州市;萧山区;120.164147;29.937756;8：00—20:00;/whyx20221018/70/7870.jpg;https://fxhz.wgly.hangzhou.gov.cn/oss/whyx20221018/70/7870.jpg
16;212;文化家园;新桥头社区文化家园;杭州市萧山区城厢街道大通路211号新桥头社区老年过渡房;杭州市;萧山区;120.288052;30.161199;周一至周五8:30-11:30，13:30-16:30;/whyx20221018/70/7496.jpg;https://fxhz.wgly.hangzhou.gov.cn/oss/whyx20221018/70/7496.jpg
13;209;老年活动中心;武盛村老年人活动中心;桐庐县分水镇武盛村;杭州市;桐庐县;119.440489;29.922959;周一至周日8:30-16:30;/whyx20221018/70/6143.jpg;https://fxhz.wgly.hangzhou.gov.cn/oss/whyx20221018/70/6143.jpg
3;200;文化活动室;原下城区文化馆;杭州市拱墅区潮王路8-1号;杭州市;拱墅区;120.17016;30.291938;周一至周日 9:00-17:00;/whyx20221018/70/10687.jpg;https://fxhz.wgly.hangzhou.gov.cn/oss/whyx20221018/70/10687.jpg
17;219;机房/广播站;杭州市临安区广播电视发射台;杭州市临安区玲珑街道玲珑山顶;杭州市;临安区;119.684209;30.21648;不开放;/whyx20221018/7/7954.jpg;https://fxhz.wgly.hangzhou.gov.cn/oss/whyx20221018/7/7954.jpg
13;209;老年活动中心;仙家里社区老年活动中心;杭州市萧山区城厢街道萧金路7号老年过渡房2号楼;杭州市;萧山区;120.282436;30.200337;周一至周日;/whyx20221018/7/7499.jpg;https://fxhz.wgly.hangzhou.gov.cn/oss/whyx20221018/7/7499.jpg
10;206;文化宫;塘栖镇工人文化宫;塘栖镇西小河社区、圣堂漾路92号;杭州市;临平区;120.186827;30.476472;正在装修中;/whyx20221018/7/4999.jpg;https://fxhz.wgly.hangzhou.gov.cn/oss/whyx20221018/7/4999.jpg
13;209;老年活动中心;上沃村老年活动中心;杭州市临安区潜川镇上沃村;杭州市;临安区;119.389424;30.003915;全天开放;/whyx20221018/7/4807.jpg;https://fxhz.wgly.hangzhou.gov.cn/oss/whyx20221018/7/4807.jpg
15;211;文化礼堂;大同镇田畈村文化礼堂;杭州市建德市大同镇田畈村;杭州市;建德市;119.083496;29.342248;周一到周日09:00-17:00;/whyx20221018/7/16239.jpg;https://fxhz.wgly.hangzhou.gov.cn/oss/whyx20221018/7/16239.jpg
15;211;文化礼堂;岛石镇仁里村文化礼堂;浙江省杭州市临安区岛石镇仁里村皂岭脚自然村;杭州市;临安区;118.890312;30.29103;08:00-18:00;/whyx20221018/7/16158.jpg;https://fxhz.wgly.hangzhou.gov.cn/oss/whyx20221018/7/16158.jpg
16;212;文化家园;黄龙社区文化家园;杭州市西湖区灵隐街道黄龙社区;杭州市;西湖区;120.127883;30.273313;nan;/whyx20221018/69/8696.jpg;https://fxhz.wgly.hangzhou.gov.cn/oss/whyx20221018/69/8696.jpg
1;198;农家书屋;半山街道云锦书苑;杭州市拱墅区半山街道云锦书苑;杭州市;拱墅区;120.170416;30.34566025;nan;/whyx20221018/69/8409.jpg;https://fxhz.wgly.hangzhou.gov.cn/oss/whyx20221018/69/8409.jpg
5;202;剧院;浙江省文化馆小剧场;杭州市拱墅区武林路77号;杭州市;拱墅区;120.16036;30.26052;09:00-17:00;/whyx20221018/69/7835.jpg;https://fxhz.wgly.hangzhou.gov.cn/oss/whyx20221018/69/7835.jpg
12;208;儿童之家;紫霞村妇女儿童活动中心;萧山区河上镇紫霞村麻园自然村;杭州市;萧山区;120.203236;29.964755;周一至周日08：00-20:00;/whyx20221018/69/7183.jpg;https://fxhz.wgly.hangzhou.gov.cn/oss/whyx20221018/69/7183.jpg
15;211;文化礼堂;大同镇淞溪村文化礼堂;杭州市建德市大同镇淞溪村;杭州市;建德市;119.076111;29.272144;周一到周日09:00-17:00;/whyx20221018/69/16240.jpg;https://fxhz.wgly.hangzhou.gov.cn/oss/whyx20221018/69/16240.jpg
3;200;文化活动室;崇贤街道四维村文体活动场馆（崇贤二小体艺馆）;杭州市临平区崇贤街道四维村文体活动场馆（崇贤二小体艺馆）;杭州市;临平区;120.1473549;30.40573119;nan;/whyx20221018/68/9074.jpg;https://fxhz.wgly.hangzhou.gov.cn/oss/whyx20221018/68/9074.jpg
17;219;机房/广播站;皋亭山铁塔;杭州市南山林场;杭州市;余杭区;120.2828624;30.42881688;不开放;/whyx20221018/68/8033.jpg;https://fxhz.wgly.hangzhou.gov.cn/oss/whyx20221018/68/8033.jpg
13;209;老年活动中心;南栅口社区老年活动中心;临平区运河街道南栅口社区2组134号东侧;杭州市;临平区;120.303559;30.459655;周一至周日8:30--16:30;/whyx20221018/68/5041.jpg;https://fxhz.wgly.hangzhou.gov.cn/oss/whyx20221018/68/5041.jpg
1;198;农家书屋;东新街道三塘社区图书馆;杭州市拱墅区三塘社区图书馆;杭州市;拱墅区;120.165426;30.294769;nan;/whyx20221018/67/8797.jpg;https://fxhz.wgly.hangzhou.gov.cn/oss/whyx20221018/67/8797.jpg
13;209;老年活动中心;望梅社区老年活动室;杭州市临平区东湖街道兴元路623号;杭州市;临平区;120.287173;30.472898;周一至周日09:00-11:30 14:00-17:00;/whyx20221018/67/5194.jpg;https://fxhz.wgly.hangzhou.gov.cn/oss/whyx20221018/67/5194.jpg
13;209;老年活动中心;麻车埠村老年活动中心;杭州市临安区潜川镇麻车埠村;杭州市;临安区;119.37508;30.071493;全天开放;/whyx20221018/67/4825.jpg;https://fxhz.wgly.hangzhou.gov.cn/oss/whyx20221018/67/4825.jpg
15;211;文化礼堂;大同镇富塘村文化礼堂;杭州市建德市大同镇富塘村;杭州市;建德市;119.079516;29.270327;周一到周日09:00-17:00;/whyx20221018/67/16257.jpg;https://fxhz.wgly.hangzhou.gov.cn/oss/whyx20221018/67/16257.jpg
15;211;文化礼堂;常安镇五胜村文化礼堂;富阳区常安镇五胜村1号;杭州市;富阳区;119.86982;29.87512;08:00-20:00;/whyx20221018/67/14899.jpg;https://fxhz.wgly.hangzhou.gov.cn/oss/whyx20221018/67/14899.jpg
1;198;农家书屋;浙江星火集团有限公司职工书屋;杭州市拱墅区东新街道长浜路718号;杭州市;拱墅区;120.180033;30.322663;周一至周五09:00-16:30;/whyx20221018/67/13135.jpg;https://fxhz.wgly.hangzhou.gov.cn/oss/whyx20221018/67/13135.jpg
17;219;机房/广播站;机房;杭州市武林路100－26号鸿鼎商务楼 208、213室;杭州市;拱墅区;120.156736;30.26399236;不开放;/whyx20221018/66/8013.jpg;https://fxhz.wgly.hangzhou.gov.cn/oss/whyx20221018/66/8013.jpg
18;213;文化服务点/阅览室;公共数字文化服务点;杭州市转塘象山大厦四幢4-2室;杭州市;西湖区;120.0735794;30.15145806;nan;/whyx20221018/66/7991.jpg;https://fxhz.wgly.hangzhou.gov.cn/oss/whyx20221018/66/7991.jpg
15;211;文化礼堂;大慈岩镇里叶村文化礼堂;杭州市建德市大慈岩镇里叶村;杭州市;建德市;119.272014;29.258452;周一到周日09:00-17:00;/whyx20221018/66/16292.jpg;https://fxhz.wgly.hangzhou.gov.cn/oss/whyx20221018/66/16292.jpg
15;211;文化礼堂;洞桥镇文村村文化礼堂;富阳区洞桥镇文村村王母岭;杭州市;富阳区;119.55595;30.02338;08:00-20:00;/whyx20221018/66/14908.jpg;https://fxhz.wgly.hangzhou.gov.cn/oss/whyx20221018/66/14908.jpg
15;211;文化礼堂;义桥镇富春村文化礼堂;杭州市萧山区义桥镇富春社区卫生服务站;杭州市;萧山区;120.144985;30.082397;周一至周日9:00-17:00;/whyx20221018/66/14746.jpg;https://fxhz.wgly.hangzhou.gov.cn/oss/whyx20221018/66/14746.jpg
2;199;文博场馆;滨江区城市展览馆;杭州市滨江区泰安路200号;杭州市;滨江区;120.210032;30.209504;nan;/whyx20221018/66/14416.jpg;https://fxhz.wgly.hangzhou.gov.cn/oss/whyx20221018/66/14416.jpg
3;200;文化活动室;拱墅区文化馆;杭州市拱墅区祥符街道北城街55号;杭州市;拱墅区;120.126107;30.319408;周二至周日9:00-17:00;/whyx20221018/66/10690.jpg;https://fxhz.wgly.hangzhou.gov.cn/oss/whyx20221018/66/10690.jpg
16;212;文化家园;金家浜社区文化家园;杭州市萧山区新塘街道金家浜社区文化家园;杭州市;萧山区;120.289384;30.150088;nan;/whyx20221018/65/8609.jpg;https://fxhz.wgly.hangzhou.gov.cn/oss/whyx20221018/65/8609.jpg
15;211;文化礼堂;大同镇溪口村文化礼堂;杭州市建德市大同镇溪口村;杭州市;建德市;119.088863;29.279186;周一到周日09:00-17:00;/whyx20221018/65/16237.jpg;https://fxhz.wgly.hangzhou.gov.cn/oss/whyx20221018/65/16237.jpg
1;198;农家书屋;杭州图书馆茶文化主题分馆;杭州市西湖区转塘街道龙坞茶镇慈母桥村青龙山1号;杭州市;西湖区;120.042998;30.187258;09:00-17:00;/whyx20221018/65/11768.jpg;https://fxhz.wgly.hangzhou.gov.cn/oss/whyx20221018/65/11768.jpg
1;198;农家书屋;东新街道水漾苑社区图书室;杭州市拱墅区水漾苑社区阅览室;杭州市;拱墅区;120.165091;30.31915;nan;/whyx20221018/64/8815.jpg;https://fxhz.wgly.hangzhou.gov.cn/oss/whyx20221018/64/8815.jpg
2;199;文博场馆;兴华红色历史展览馆;杭州市富阳区兴华红色历史展览馆;杭州市;富阳区;119.9555052;30.05126987;nan;/whyx20221018/63/9453.jpg;https://fxhz.wgly.hangzhou.gov.cn/oss/whyx20221018/63/9453.jpg
1;198;农家书屋;文澜书院;杭州市拱墅区文澜书院;杭州市;拱墅区;120.1282552;30.32006918;nan;/whyx20221018/63/8850.jpg;https://fxhz.wgly.hangzhou.gov.cn/oss/whyx20221018/63/8850.jpg
3;200;文化活动室;虹园社区文化活动室;杭州市拱墅区虹园社区文化活动室;杭州市;拱墅区;120.1520921;30.29156524;nan;/whyx20221018/63/8557.jpg;https://fxhz.wgly.hangzhou.gov.cn/oss/whyx20221018/63/8557.jpg
18;213;文化服务点/阅览室;公共数字文化服务点;杭州市晨光绿苑（南苑）1幢底商2号;杭州市;钱塘区;120.268761;30.311305;nan;/whyx20221018/63/7976.jpg;https://fxhz.wgly.hangzhou.gov.cn/oss/whyx20221018/63/7976.jpg
16;212;文化家园;西河路社区文化家园;杭州市萧山区城厢街道西河路社区郁家弄小区6幢底层;杭州市;萧山区;120.264327;30.161259;周一至周五上午8:30-11:30下午1：30-17：00;/whyx20221018/63/7484.jpg;https://fxhz.wgly.hangzhou.gov.cn/oss/whyx20221018/63/7484.jpg
2;199;文博场馆;外范村青笋竹博物馆;杭州市桐庐县外范村;杭州市;桐庐县;119.32137;29.984597;周一至周日08:30-16:30;/whyx20221018/63/14491.jpg;https://fxhz.wgly.hangzhou.gov.cn/oss/whyx20221018/63/14491.jpg
5;202;剧院;九剧院;杭州市拱墅区小河路480号运河天地文化艺术园区8号楼;杭州市;拱墅区;120.137643;30.322431;周一至周日 10:00-20:00;/whyx20221018/62/7823.jpg;https://fxhz.wgly.hangzhou.gov.cn/oss/whyx20221018/62/7823.jpg
13;209;老年活动中心;银河社区老年活动室;银河社区永久路217号城建公寓9幢;杭州市;萧山区;120.272654;30.182083;周一到周日8:30-17:00;/whyx20221018/62/6907.jpg;https://fxhz.wgly.hangzhou.gov.cn/oss/whyx20221018/62/6907.jpg
2;199;文博场馆;青云记忆;杭州市临安区太湖源镇青溪街263号;杭州市;临安区;119.597024;30.266895;08:00-20:00;/whyx20221018/62/4912.jpg;https://fxhz.wgly.hangzhou.gov.cn/oss/whyx20221018/62/4912.jpg
15;211;文化礼堂;大同镇黄家村文化礼堂;杭州市建德市大同镇黄家村黄家自然村;杭州市;建德市;119.093343;29.309666;周一到周日09:00-17:00;/whyx20221018/62/16252.jpg;https://fxhz.wgly.hangzhou.gov.cn/oss/whyx20221018/62/16252.jpg
15;211;文化礼堂;银湖街道新生村文化礼堂;杭州市富阳区银湖街道新生村邵村1号;杭州市;富阳区;119.86304;30.152;08:00-20:00;/whyx20221018/62/14830.jpg;https://fxhz.wgly.hangzhou.gov.cn/oss/whyx20221018/62/14830.jpg
3;200;文化活动室;霞湾巷社区文化服务中心;杭州市拱墅区霞湾巷社区文化服务中心;杭州市;拱墅区;120.1806683;30.27179919;nan;/whyx20221018/61/8867.jpg;https://fxhz.wgly.hangzhou.gov.cn/oss/whyx20221018/61/8867.jpg
3;200;文化活动室;红苹果社区文化家园活动中心;杭州市上城区九堡街道红苹果社区文化家园活动中心;杭州市;上城区;120.163858;30.238427;09:00-11:00;/whyx20221018/61/8649.jpg;https://fxhz.wgly.hangzhou.gov.cn/oss/whyx20221018/61/8649.jpg
3;200;文化活动室;虎山社区文化活动室;杭州市富阳区富春街道虎山社区文化活动室;杭州市;富阳区;119.943195;30.067436;nan;/whyx20221018/61/8500.jpg;https://fxhz.wgly.hangzhou.gov.cn/oss/whyx20221018/61/8500.jpg
13;209;老年活动中心;杭信村老年活动中心;临平区运河街道杭信村10组;杭州市;临平区;120.269054;30.500456;周一至周日8:00-17:00;/whyx20221018/61/5053.jpg;https://fxhz.wgly.hangzhou.gov.cn/oss/whyx20221018/61/5053.jpg
1;198;农家书屋;常安镇光村村农家书屋;杭州市萧山区常安镇光村;杭州市;萧山区;120.196003;30.101953;未开放;/whyx20221018/61/12060.jpg;https://fxhz.wgly.hangzhou.gov.cn/oss/whyx20221018/61/12060.jpg
2;199;文博场馆;中国工农北上抗日先遣队纪念馆;杭州市淳安县中国工农北上抗日先遣队纪念馆;杭州市;淳安县;118.4384322;29.50509168;nan;/whyx20221018/60/9519.jpg;https://fxhz.wgly.hangzhou.gov.cn/oss/whyx20221018/60/9519.jpg
17;219;机房/广播站;建德市乾潭镇户外大屏;杭州市建德市乾潭镇子胥路61号;杭州市;建德市;119.54615;29.615461;周一至周日（8：30-20:00）;/whyx20221018/60/5991.jpg;https://fxhz.wgly.hangzhou.gov.cn/oss/whyx20221018/60/5991.jpg
13;209;老年活动中心;海龙村竺村老年活动中心;杭州市临安区潜川镇海龙村下潘家78号;杭州市;临安区;119.417218;30.107817;全天开放;/whyx20221018/60/4837.jpg;https://fxhz.wgly.hangzhou.gov.cn/oss/whyx20221018/60/4837.jpg
15;211;文化礼堂;大同镇永盛村文化礼堂;杭州市建德市大同镇四村线靠近四村;杭州市;建德市;119.123761;29.297686;周一到周日09:00-17:00;/whyx20221018/60/16232.jpg;https://fxhz.wgly.hangzhou.gov.cn/oss/whyx20221018/60/16232.jpg
15;211;文化礼堂;浦阳镇桃湖村文化礼堂;杭州市萧山区浦阳镇桃湖村木杓山自然村;杭州市;萧山区;120.237396;29.961224;周一至周日09:00-20:00;/whyx20221018/60/15408.jpg;https://fxhz.wgly.hangzhou.gov.cn/oss/whyx20221018/60/15408.jpg
15;211;文化礼堂;春江街道新建村文化礼堂;杭州市富阳区春江街道新建村;杭州市;富阳区;119.98102;30.02111;08:00-20:00;/whyx20221018/60/14850.jpg;https://fxhz.wgly.hangzhou.gov.cn/oss/whyx20221018/60/14850.jpg
16;212;文化家园;浙大求是社区文化家园;杭州市西湖区灵隐街道浙大求是社区;杭州市;西湖区;120.122343;30.265975;nan;/whyx20221018/6/8699.jpg;https://fxhz.wgly.hangzhou.gov.cn/oss/whyx20221018/6/8699.jpg
19;214;公共阅报栏;杭州市萧山区南阳街道宣传栏;杭州市萧山区南阳街道向阳路10号;杭州市;萧山区;120.447785;30.259144;周一至周日24小时;/whyx20221018/6/7919.jpg;https://fxhz.wgly.hangzhou.gov.cn/oss/whyx20221018/6/7919.jpg
7;203;美术馆;王少求美术馆;杭州市彩虹城75号王少求美术馆附近;杭州市;滨江区;120.122773;30.287643;相约开放;/whyx20221018/6/7838.jpg;https://fxhz.wgly.hangzhou.gov.cn/oss/whyx20221018/6/7838.jpg
17;219;机房/广播站;南阳街道文化广播站;浙江省杭州市萧山区南阳街道潮上云临北苑;杭州市;萧山区;120.438068;30.266995;周一至周五08:30-11:30,13:30-16:30;/whyx20221018/6/7298.jpg;https://fxhz.wgly.hangzhou.gov.cn/oss/whyx20221018/6/7298.jpg
13;209;老年活动中心;马山村老年活动中心;杭州市临安区潜川镇马山村;杭州市;临安区;119.301543;30.010609;全天开放;/whyx20221018/6/4798.jpg;https://fxhz.wgly.hangzhou.gov.cn/oss/whyx20221018/6/4798.jpg
15;211;文化礼堂;乾潭镇仇村村文化礼堂;杭州市建德市乾潭镇仇村村委附近;杭州市;建德市;119.515787;29.646324;全天开放;/whyx20221018/6/15332.jpg;https://fxhz.wgly.hangzhou.gov.cn/oss/whyx20221018/6/15332.jpg
1;198;农家书屋;鲜丰水果股份有限公司职工书屋;杭州市拱墅区三墩路85号东楼1-4层;杭州市;拱墅区;120.110169;30.334922;周一至周五;/whyx20221018/6/13037.jpg;https://fxhz.wgly.hangzhou.gov.cn/oss/whyx20221018/6/13037.jpg
16;212;文化家园;王有史社区文化家园;杭州市萧山区新塘街道育才路施家波桥东（育才路、方旭弄交界口东南）;杭州市;萧山区;120.28;30.14;夏令时8:30-17:00 冬令时8:30-17:00;/whyx20221018/59/8847.jpg;https://fxhz.wgly.hangzhou.gov.cn/oss/whyx20221018/59/8847.jpg
17;219;机房/广播站;千岛湖镇华数营业厅;杭州市淳安县千岛湖镇新安东路489号;杭州市;淳安县;119.041848;29.604563;8：00-20：00;/whyx20221018/59/6841.jpg;https://fxhz.wgly.hangzhou.gov.cn/oss/whyx20221018/59/6841.jpg
9;205;体育设施;新宇村多功能球场;临平区运河街道新宇村6组姜石68号对面;杭州市;临平区;120.31692;30.513194;周一至周日8:00--22：00;/whyx20221018/59/5033.jpg;https://fxhz.wgly.hangzhou.gov.cn/oss/whyx20221018/59/5033.jpg
13;209;老年活动中心;乐平村老年活动中心;杭州市临安区潜川镇乐平村常乐寺121号;杭州市;临安区;119.403577;30.013098;全天开放;/whyx20221018/59/4791.jpg;https://fxhz.wgly.hangzhou.gov.cn/oss/whyx20221018/59/4791.jpg
1;198;农家书屋;靖江街道靖南村农家书屋;杭州市萧山区靖江街道靖南村68号;杭州市;萧山区;120.452927;30.227751;周一至周五8:00-11:00；13:00-17：00;/whyx20221018/59/11627.jpg;https://fxhz.wgly.hangzhou.gov.cn/oss/whyx20221018/59/11627.jpg
11;207;青少年宫;萧山区青少年年宫空港分宫;杭州市萧山区靖江路(近靖东村);杭州市;萧山区;120.46657;30.220736;nan;/whyx20221018/58/7863.jpg;https://fxhz.wgly.hangzhou.gov.cn/oss/whyx20221018/58/7863.jpg
17;219;机房/广播站;萧山区红山农场文化广播站;杭州市萧山区红山农场萧清大道440号;杭州市;萧山区;120.382023;30.229989;周一至周五：8:00--16:30;/whyx20221018/58/7155.jpg;https://fxhz.wgly.hangzhou.gov.cn/oss/whyx20221018/58/7155.jpg
14;210;文体中心;凤川街道综合文体站;桐庐县凤川大道凤川小学北侧约70米;杭州市;桐庐县;119.763184;29.827686;周一至周日8：00-17:30;/whyx20221018/58/6213.jpg;https://fxhz.wgly.hangzhou.gov.cn/oss/whyx20221018/58/6213.jpg
16;212;文化家园;体东社区文化家园;中江花园15-2-3楼;杭州市;拱墅区;120.185068;30.272218;周一至周日9:00-17:00;/whyx20221018/58/6055.jpg;https://fxhz.wgly.hangzhou.gov.cn/oss/whyx20221018/58/6055.jpg
15;211;文化礼堂;大同镇江头村文化礼堂;杭州市建德市大同镇619县道靠近江头;杭州市;建德市;119.013029;29.23617;周一到周日09:00-17:00;/whyx20221018/58/16249.jpg;https://fxhz.wgly.hangzhou.gov.cn/oss/whyx20221018/58/16249.jpg
15;211;文化礼堂;潜川镇阔滩村文化礼堂;浙江省杭州市临安区潜川镇阔滩村文化礼堂门牌号阔滩村6号;杭州市;临安区;119.384931;30.043699;08:30-20:00;/whyx20221018/58/15307.jpg;https://fxhz.wgly.hangzhou.gov.cn/oss/whyx20221018/58/15307.jpg
15;211;文化礼堂;新登镇湘河村文化礼堂;富阳区新登镇湘河村;杭州市;富阳区;119.67981;30.08967;08:00-20:00;/whyx20221018/58/14870.jpg;https://fxhz.wgly.hangzhou.gov.cn/oss/whyx20221018/58/14870.jpg
13;209;老年活动中心;金雅苑社区居家养老活动中心;杭州市上城区九堡街道金雅苑社区居家养老活动中心;杭州市;上城区;120.277747;30.309661;09:00-11:00;/whyx20221018/57/8652.jpg;https://fxhz.wgly.hangzhou.gov.cn/oss/whyx20221018/57/8652.jpg
17;219;机房/广播站;机房;杭州市海月路73、75、77号;杭州市;上城区;120.161725;30.207564;不开放;/whyx20221018/57/8005.jpg;https://fxhz.wgly.hangzhou.gov.cn/oss/whyx20221018/57/8005.jpg
12;208;儿童之家;众联村妇女儿童活动中心;萧山区河上镇众联村199号;杭州市;萧山区;120.180871;29.950121;周一至周日08：30-17:00;/whyx20221018/57/7190.jpg;https://fxhz.wgly.hangzhou.gov.cn/oss/whyx20221018/57/7190.jpg
1;198;农家书屋;浙宝电气（杭州）集团有限公司职工书屋;杭州市上城区笕桥俞章路88号(华中南路地铁站G口步行440米);杭州市;上城区;120.201203;30.322337;周一至周日08:30-16:30;/whyx20221018/57/13108.jpg;https://fxhz.wgly.hangzhou.gov.cn/oss/whyx20221018/57/13108.jpg
3;200;文化活动室;竹竿巷社区文化活动室;杭州市拱墅区武林街道竹竿巷社区文化活动室;杭州市;拱墅区;120.161821;30.26294;nan;/whyx20221018/56/8862.jpg;https://fxhz.wgly.hangzhou.gov.cn/oss/whyx20221018/56/8862.jpg
3;200;文化活动室;华联社区文体活动室;杭州市拱墅区华联社区文体活动室;杭州市;拱墅区;120.1588393;30.28739899;nan;/whyx20221018/56/8569.jpg;https://fxhz.wgly.hangzhou.gov.cn/oss/whyx20221018/56/8569.jpg
3;200;文化活动室;府苑社区文化活动中心;杭州市西湖区蒋村街道府苑社区文化活动中心;杭州市;西湖区;120.0592865;30.28299634;nan;/whyx20221018/56/8488.jpg;https://fxhz.wgly.hangzhou.gov.cn/oss/whyx20221018/56/8488.jpg
17;219;机房/广播站;玉华山发射台;杭州市分水镇;杭州市;桐庐县;119.4405246;29.93000074;不开放;/whyx20221018/56/8040.jpg;https://fxhz.wgly.hangzhou.gov.cn/oss/whyx20221018/56/8040.jpg
18;213;文化服务点/阅览室;公共数字文化服务点;杭州市圣苑13-303;杭州市;西湖区;120.0922315;30.3058138;nan;/whyx20221018/56/7964.jpg;https://fxhz.wgly.hangzhou.gov.cn/oss/whyx20221018/56/7964.jpg
2;199;文博场馆;杭州市临安区烈士纪念馆管理所;杭州市临安区锦城街道玲珑山路1717号;杭州市;临安区;119.687292;30.222619;周二至周日9:00—11:00，14:00—16:00;/whyx20221018/56/7883.jpg;https://fxhz.wgly.hangzhou.gov.cn/oss/whyx20221018/56/7883.jpg
16;212;文化家园;翠苑二区社区文化家园;杭州市西湖区翠苑二区4-1;杭州市;西湖区;120.127465;30.289503;全天开放;/whyx20221018/56/7546.jpg;https://fxhz.wgly.hangzhou.gov.cn/oss/whyx20221018/56/7546.jpg
15;211;文化礼堂;大同镇竹源村文化礼堂;杭州市建德市大同镇竹源村叶村自然村;杭州市;建德市;119.842344;29.981198;周一到周日09:00-17:00;/whyx20221018/56/16229.jpg;https://fxhz.wgly.hangzhou.gov.cn/oss/whyx20221018/56/16229.jpg
15;211;文化礼堂;三都镇和村文化礼堂;杭州市建德市三都镇和村自然村;杭州市;建德市;119.604474;29.534721;夏令时08:00-17:30 冬令时08:00-17:00;/whyx20221018/56/15213.jpg;https://fxhz.wgly.hangzhou.gov.cn/oss/whyx20221018/56/15213.jpg
3;200;文化活动室;黎园社区活动室;杭州市拱墅区黎园社区活动室;杭州市;拱墅区;120.1616087;30.28506239;nan;/whyx20221018/55/8672.jpg;https://fxhz.wgly.hangzhou.gov.cn/oss/whyx20221018/55/8672.jpg
3;200;文化活动室;半道红文化活动室;杭州市拱墅区米市巷街道半道红文化活动室;杭州市;拱墅区;120.145612;30.288792;nan;/whyx20221018/54/8718.jpg;https://fxhz.wgly.hangzhou.gov.cn/oss/whyx20221018/54/8718.jpg
3;200;文化活动室;京都苑社区综合文化服务中心;杭州市拱墅区京都苑社区综合文化服务中心;杭州市;拱墅区;120.1806683;30.27179919;nan;/whyx20221018/54/8637.jpg;https://fxhz.wgly.hangzhou.gov.cn/oss/whyx20221018/54/8637.jpg
3;200;文化活动室;蔡东藩社区文化活动室;杭州市萧山区临浦镇蔡东藩社区文化活动室;杭州市;萧山区;120.2730335;30.16120463;nan;/whyx20221018/54/8431.jpg;https://fxhz.wgly.hangzhou.gov.cn/oss/whyx20221018/54/8431.jpg
18;213;文化服务点/阅览室;公共数字文化服务点;杭州市招商雍泽府21幢底商9号;杭州市;上城区;120.2450971;30.30034447;nan;/whyx20221018/54/7984.jpg;https://fxhz.wgly.hangzhou.gov.cn/oss/whyx20221018/54/7984.jpg
2;199;文博场馆;彰坞竹艺非遗展示馆 ;杭州市桐庐县彰坞竹艺非遗展示馆 ;杭州市;桐庐县;119.7987847;29.81371247;nan;/whyx20221018/53/9507.jpg;https://fxhz.wgly.hangzhou.gov.cn/oss/whyx20221018/53/9507.jpg
3;200;文化活动室;长乐苑社区文化服务中心;杭州市拱墅区长乐苑社区文化服务中心;杭州市;拱墅区;120.1806683;30.27179919;nan;/whyx20221018/53/9015.jpg;https://fxhz.wgly.hangzhou.gov.cn/oss/whyx20221018/53/9015.jpg
7;203;美术馆;钱塘湾艺术馆;杭州市浙江省滨江区银杏汇9号楼(1~2楼);杭州市;滨江区;120.147694;30.189764;10:00-03:00;/whyx20221018/53/7831.jpg;https://fxhz.wgly.hangzhou.gov.cn/oss/whyx20221018/53/7831.jpg
15;211;文化礼堂;大同镇清潭村文化礼堂;杭州市建德市大同镇清潭村;杭州市;建德市;119.10452;29.266133;周一到周日09:00-17:00;/whyx20221018/53/16244.jpg;https://fxhz.wgly.hangzhou.gov.cn/oss/whyx20221018/53/16244.jpg
15;211;文化礼堂;威坪镇笔峰村文化礼堂;浙江省杭州市淳安县威坪镇笔峰村共享法庭;杭州市;淳安县;118.81638;29.806862;08:00-17:00;/whyx20221018/53/14956.jpg;https://fxhz.wgly.hangzhou.gov.cn/oss/whyx20221018/53/14956.jpg
15;211;文化礼堂;闲林街道闲林村文化礼堂;杭州市余杭区闲林街道闲林村西坞畈公寓;杭州市;余杭区;119.984448;30.221244;周一至周日9:00-17:00;/whyx20221018/53/14875.jpg;https://fxhz.wgly.hangzhou.gov.cn/oss/whyx20221018/53/14875.jpg
3;200;文化活动室;仙林社区文化活动室;杭州市拱墅区武林街道仙林社区文化活动室;杭州市;拱墅区;120.165749;30.263798;nan;/whyx20221018/52/8859.jpg;https://fxhz.wgly.hangzhou.gov.cn/oss/whyx20221018/52/8859.jpg
3;200;文化活动室;流水西苑社区综合文化服务中心;杭州市拱墅区流水西苑社区综合文化服务中心;杭州市;拱墅区;120.1806683;30.27179919;nan;/whyx20221018/52/8701.jpg;https://fxhz.wgly.hangzhou.gov.cn/oss/whyx20221018/52/8701.jpg
17;219;机房/广播站;百丈山发射台;杭州市富阳区新登镇百丈山;杭州市;富阳区;119.7306328;29.95024911;不开放;/whyx20221018/52/8037.jpg;https://fxhz.wgly.hangzhou.gov.cn/oss/whyx20221018/52/8037.jpg
17;219;机房/广播站;机房;杭州市环城北路63号201室;杭州市;拱墅区;120.181722;30.274446;不开放;/whyx20221018/52/8000.jpg;https://fxhz.wgly.hangzhou.gov.cn/oss/whyx20221018/52/8000.jpg
9;205;体育设施;杭南村室内健身馆;临平区运河街道杭南村杭南路8号;杭州市;临平区;120.266087;30.485573;周一至周日8:30-20:30;/whyx20221018/52/5045.jpg;https://fxhz.wgly.hangzhou.gov.cn/oss/whyx20221018/52/5045.jpg
3;200;文化活动室;吴山路社区文化活动室;杭州市上城区湖滨街道吴山路社区文化活动室;杭州市;上城区;120.161466;30.254657;nan;/whyx20221018/51/8564.jpg;https://fxhz.wgly.hangzhou.gov.cn/oss/whyx20221018/51/8564.jpg
18;213;文化服务点/阅览室;公共数字文化服务点;杭州市梅岭北路7号（原街道综合服务中心附楼）2楼三间;杭州市;西湖区;120.17707;30.279109;nan;/whyx20221018/51/7969.jpg;https://fxhz.wgly.hangzhou.gov.cn/oss/whyx20221018/51/7969.jpg
19;214;公共阅报栏;杭州市钱塘区复兴路新湾农商银行阅报栏;杭州市钱塘区新湾街道新湾大道588号;杭州市;钱塘区;120.541927;30.285273;全天开放;/whyx20221018/51/7659.jpg;https://fxhz.wgly.hangzhou.gov.cn/oss/whyx20221018/51/7659.jpg
16;212;文化家园;江寺社区文化家园;杭州市萧山区城厢街道韩家弄2幢;杭州市;萧山区;120.272755;30.161318;周一至周五8:30-11:30；1:30-4:30;/whyx20221018/51/7477.jpg;https://fxhz.wgly.hangzhou.gov.cn/oss/whyx20221018/51/7477.jpg
15;211;文化礼堂;场口镇下图山村文化礼堂;富阳区场口镇下图山村;杭州市;富阳区;119.85108;29.86493;08:00-20:00;/whyx20221018/51/14895.jpg;https://fxhz.wgly.hangzhou.gov.cn/oss/whyx20221018/51/14895.jpg
1;198;农家书屋;浙江未来教育书社有限公司西湖文化广场分公司;杭州市拱墅区环城北路47号;杭州市;拱墅区;120.163755;30.276652;周一至周日08:00－22:00;/whyx20221018/51/13131.jpg;https://fxhz.wgly.hangzhou.gov.cn/oss/whyx20221018/51/13131.jpg
3;200;文化活动室;米市社区文化活动室;杭州市拱墅区米市巷街道米市社区活动室;杭州市;拱墅区;120.143696;30.289418;nan;/whyx20221018/50/8721.jpg;https://fxhz.wgly.hangzhou.gov.cn/oss/whyx20221018/50/8721.jpg
3;200;文化活动室;太平桥社区文化活动室;杭州市富阳区富春街道太平桥社区文化活动室;杭州市;富阳区;120.273033;30.161205;nan;/whyx20221018/50/8509.jpg;https://fxhz.wgly.hangzhou.gov.cn/oss/whyx20221018/50/8509.jpg
16;212;文化家园;学府社区文化家园;杭州市余杭区学府社区文化家园;杭州市;余杭区;119.972653;30.374198;nan;/whyx20221018/50/8347.jpg;https://fxhz.wgly.hangzhou.gov.cn/oss/whyx20221018/50/8347.jpg
17;219;机房/广播站;机房;杭州市滨江区联庄2区28-1号;杭州市;滨江区;120.1497104;30.18220181;不开放;/whyx20221018/50/8017.jpg;https://fxhz.wgly.hangzhou.gov.cn/oss/whyx20221018/50/8017.jpg
1;198;农家书屋;党湾镇如松村农家书屋;杭州市萧山区瓜沥镇洛阳村文化礼堂;杭州市;萧山区;120.421976;30.16178;周一至周五08:00-16:30;/whyx20221018/50/11420.jpg;https://fxhz.wgly.hangzhou.gov.cn/oss/whyx20221018/50/11420.jpg
16;212;文化家园;罗婆路社区文化家园;杭州市萧山区新塘街道右岸澜庭10幢（罗婆路、方旭弄）交叉口东南;杭州市;萧山区;120.279198;30.134697;nan;/whyx20221018/5/8708.jpg;https://fxhz.wgly.hangzhou.gov.cn/oss/whyx20221018/5/8708.jpg
17;219;机房/广播站;峙山发射台;杭州市萧山区临浦镇峙山;杭州市;萧山区;120.247412;30.038405;不开放;/whyx20221018/5/8030.jpg;https://fxhz.wgly.hangzhou.gov.cn/oss/whyx20221018/5/8030.jpg
1;198;农家书屋;东新街道灯塔社区图书室;杭州市拱墅区灯塔社区图书室;杭州市;拱墅区;120.1621457;30.31560589;nan;/whyx20221018/49/8463.jpg;https://fxhz.wgly.hangzhou.gov.cn/oss/whyx20221018/49/8463.jpg
18;213;文化服务点/阅览室;公共数字文化服务点;杭州市萍水东路万家花城二期22-1号-1;杭州市;拱墅区;120.1055698;30.304973;nan;/whyx20221018/49/7989.jpg;https://fxhz.wgly.hangzhou.gov.cn/oss/whyx20221018/49/7989.jpg
17;219;机房/广播站;众联村广播电视播出传输覆盖设施;杭州市萧山区河上镇众联村众利自然村45号;杭州市;萧山区;120.181269;29.9492;全天候开放;/whyx20221018/49/7871.jpg;https://fxhz.wgly.hangzhou.gov.cn/oss/whyx20221018/49/7871.jpg
13;209;老年活动中心;高桥社区老年活动中心;杭州市萧山区城厢街道道源路288号高桥社区老年过渡房;杭州市;萧山区;120.278752;30.151926;周一至周日上午8：00-11：00下午13：00-16:00;/whyx20221018/49/7497.jpg;https://fxhz.wgly.hangzhou.gov.cn/oss/whyx20221018/49/7497.jpg
13;209;老年活动中心;道墩坝社区老年活动中心;杭州市临平区东湖街道道墩坝社区3组道墩坝87号;杭州市;临平区;120.278575;30.479335;周一至周日08:30-17:00;/whyx20221018/49/5178.jpg;https://fxhz.wgly.hangzhou.gov.cn/oss/whyx20221018/49/5178.jpg
16;212;文化家园;庆丰社区文化家园;杭州市西湖区灵隐街道庆丰社区;杭州市;西湖区;120.122125;30.272327;nan;/whyx20221018/48/8697.jpg;https://fxhz.wgly.hangzhou.gov.cn/oss/whyx20221018/48/8697.jpg
13;209;老年活动中心;牛田社区文化家园;杭州市上城区九堡街道牛田社区老年活动中心;杭州市;上城区;120.224187;30.33883;09:00-11:00;/whyx20221018/48/8660.jpg;https://fxhz.wgly.hangzhou.gov.cn/oss/whyx20221018/48/8660.jpg
3;200;文化活动室;半山街道沈家桥社区文化活动室;杭州市拱墅区半山街道沈家桥社区文化活动室;杭州市;拱墅区;120.1784909;30.36855456;nan;/whyx20221018/48/8408.jpg;https://fxhz.wgly.hangzhou.gov.cn/oss/whyx20221018/48/8408.jpg
15;211;文化礼堂;城南街道乔林村文化礼堂;杭州市桐庐县城南街道乔林村;杭州市;桐庐县;119.681873;29.782863;08:30:00-17:00:02;/whyx20221018/48/15293.jpg;https://fxhz.wgly.hangzhou.gov.cn/oss/whyx20221018/48/15293.jpg
1;198;农家书屋;浙江光越传动科技有限公司职工书屋;杭州市拱墅区石桥街道石祥路93号新天地尚座东楼;杭州市;拱墅区;120.181809;30.327021;周一至周五，9:30-16:00;/whyx20221018/48/13116.jpg;https://fxhz.wgly.hangzhou.gov.cn/oss/whyx20221018/48/13116.jpg
3;200;文化活动室;吴牙社区文化活动室;杭州市拱墅区吴牙社区文化活动室;杭州市;拱墅区;120.169435;30.26163229;nan;/whyx20221018/47/8854.jpg;https://fxhz.wgly.hangzhou.gov.cn/oss/whyx20221018/47/8854.jpg
16;212;文化家园;镇东文化家园;杭州市余杭区镇东文化家园;杭州市;余杭区;119.73095;30.524872;nan;/whyx20221018/47/8362.jpg;https://fxhz.wgly.hangzhou.gov.cn/oss/whyx20221018/47/8362.jpg
17;219;机房/广播站;广播电视发射台;杭州市皋亭山上;杭州市;拱墅区;120.2145355;30.38856495;不开放;/whyx20221018/47/8032.jpg;https://fxhz.wgly.hangzhou.gov.cn/oss/whyx20221018/47/8032.jpg
18;213;文化服务点/阅览室;办公及机房;杭州市滨江区长江路179号;杭州市;滨江区;120.203852;30.156228;nan;/whyx20221018/47/7972.jpg;https://fxhz.wgly.hangzhou.gov.cn/oss/whyx20221018/47/7972.jpg
16;212;文化家园;拱秀社区文化家园;杭州市萧山区城厢街道拱秀社区老年活动室;杭州市;萧山区;120.273528;30.154509;周一至周六上午8：00至10：30，下午1：00至4：00;/whyx20221018/47/7480.jpg;https://fxhz.wgly.hangzhou.gov.cn/oss/whyx20221018/47/7480.jpg
9;205;体育设施;南栅口社区体育场地;临平区运河街道南栅口社区4组24号南;杭州市;临平区;120.305952;30.462954;周一至周五8.30--16.30;/whyx20221018/47/5040.jpg;https://fxhz.wgly.hangzhou.gov.cn/oss/whyx20221018/47/5040.jpg
15;211;文化礼堂;常安镇杏梅坞村文化礼堂;富阳区常安镇杏梅坞村;杭州市;富阳区;119.93465;29.85288;08:00-20:00;/whyx20221018/47/14808.jpg;https://fxhz.wgly.hangzhou.gov.cn/oss/whyx20221018/47/14808.jpg
3;200;文化活动室;云顶社区文化活动室;杭州市富阳区云顶社区文化活动室;杭州市;富阳区;119.7308617;29.9752535;nan;/whyx20221018/46/8970.jpg;https://fxhz.wgly.hangzhou.gov.cn/oss/whyx20221018/46/8970.jpg
1;198;农家书屋;东新街道三塘苑社区图书室;杭州市拱墅区三塘苑社区阅览室;杭州市;拱墅区;120.166353;30.311398;nan;/whyx20221018/46/8798.jpg;https://fxhz.wgly.hangzhou.gov.cn/oss/whyx20221018/46/8798.jpg
3;200;文化活动室;临东社区文化活动室;杭州市萧山区临浦镇临东社区文化活动室;杭州市;萧山区;120.2730335;30.16120463;nan;/whyx20221018/46/8680.jpg;https://fxhz.wgly.hangzhou.gov.cn/oss/whyx20221018/46/8680.jpg
15;211;文化礼堂;大同镇高桥村文化礼堂;杭州市建德市大同镇高桥村;杭州市;建德市;119.112155;29.323917;周一到周日09:00-17:00;/whyx20221018/46/16256.jpg;https://fxhz.wgly.hangzhou.gov.cn/oss/whyx20221018/46/16256.jpg
15;211;文化礼堂;杨村桥镇徐坑村文化礼堂;杭州市建德市杨村桥镇徐坑村;杭州市;建德市;119.410344;29.648736;周一至周日9:00-17:00;/whyx20221018/46/14782.jpg;https://fxhz.wgly.hangzhou.gov.cn/oss/whyx20221018/46/14782.jpg
17;219;机房/广播站;机房;杭州市莫干山路102号轻工技校办公大楼7楼;杭州市;拱墅区;120.151438;30.2818202;不开放;/whyx20221018/45/8012.jpg;https://fxhz.wgly.hangzhou.gov.cn/oss/whyx20221018/45/8012.jpg
18;213;文化服务点/阅览室;公共数字文化服务点;杭州市兰韵天城13幢底商2号;杭州市;西湖区;120.085196;30.330585;nan;/whyx20221018/45/7992.jpg;https://fxhz.wgly.hangzhou.gov.cn/oss/whyx20221018/45/7992.jpg
15;211;文化礼堂;大慈岩镇三元村文化礼堂;杭州市建德市大慈岩镇三元村;杭州市;建德市;119.315577;29.306227;周一到周日09:00-17:00;/whyx20221018/45/16291.jpg;https://fxhz.wgly.hangzhou.gov.cn/oss/whyx20221018/45/16291.jpg
2;199;文博场馆;吉利汽车博物馆;杭州市萧山区吉利汽车博物馆;杭州市;萧山区;120.284617;30.171363;周一至周日08:30-17:00;/whyx20221018/45/14525.jpg;https://fxhz.wgly.hangzhou.gov.cn/oss/whyx20221018/45/14525.jpg
3;200;文化活动室;西湖区文化馆;杭州市西湖区曙光路184号;杭州市;西湖区;120.130316;30.254024;周一至周日9：00-21：00;/whyx20221018/45/10691.jpg;https://fxhz.wgly.hangzhou.gov.cn/oss/whyx20221018/45/10691.jpg
18;213;文化服务点/阅览室;公共数字文化服务点;杭州市三塘南村19-3-101;杭州市;拱墅区;120.166212;30.305616;nan;/whyx20221018/44/7957.jpg;https://fxhz.wgly.hangzhou.gov.cn/oss/whyx20221018/44/7957.jpg
3;200;文化活动室;临浦镇文化馆;杭州市萧山区临浦镇人民路22号;杭州市;萧山区;120.247647;30.046092;周一至周日8：00-16:00;/whyx20221018/44/7465.jpg;https://fxhz.wgly.hangzhou.gov.cn/oss/whyx20221018/44/7465.jpg
15;211;文化礼堂;百江镇金塘坞村文化礼堂;杭州市桐庐县外金塘坞东南约123米;杭州市;桐庐县;119.585038;29.888714;周一到周日09:00-17:00;/whyx20221018/44/16397.jpg;https://fxhz.wgly.hangzhou.gov.cn/oss/whyx20221018/44/16397.jpg
15;211;文化礼堂;大同镇小溪源村文化礼堂;杭州市建德市大同镇618县道靠近觉义坞;杭州市;建德市;119.053669;29.270723;周一到周日09:00-17:00;/whyx20221018/44/16236.jpg;https://fxhz.wgly.hangzhou.gov.cn/oss/whyx20221018/44/16236.jpg
15;211;文化礼堂;岛石镇太平里村文化礼堂;浙江省杭州市临安区岛石镇太平里村坞口;杭州市;临安区;118.912685;30.291707;08:30-16:30;/whyx20221018/44/16155.jpg;https://fxhz.wgly.hangzhou.gov.cn/oss/whyx20221018/44/16155.jpg
3;200;文化活动室;水澄桥社区文化活动室;杭州市上城区水澄桥社区文化活动室;杭州市;上城区;120.1491558;30.20694168;nan;/whyx20221018/43/8814.jpg;https://fxhz.wgly.hangzhou.gov.cn/oss/whyx20221018/43/8814.jpg
13;209;老年活动中心;杨公社区居家养老照料中心;杭州市上城区九堡街道杨公社区居家养老照料中心;杭州市;上城区;120.202448;30.209254;09:00-11:00;/whyx20221018/43/8665.jpg;https://fxhz.wgly.hangzhou.gov.cn/oss/whyx20221018/43/8665.jpg
17;219;机房/广播站;西山发射台;杭州市萧山区城厢镇西山;杭州市;萧山区;120.257475;30.162848;不开放;/whyx20221018/43/8029.jpg;https://fxhz.wgly.hangzhou.gov.cn/oss/whyx20221018/43/8029.jpg
9;205;体育设施;严陵村老年活动中心;富春江镇严陵村蒋家埠;杭州市;桐庐县;119.63455;29.72492;周一至周日8:00-17：00;/whyx20221018/43/6272.jpg;https://fxhz.wgly.hangzhou.gov.cn/oss/whyx20221018/43/6272.jpg
12;208;儿童之家;临平区妇女儿童服务中心;杭州市临平区临平街道龙王塘路109号;杭州市;临平区;120.297605;30.419475;周一至周五9.00-17.30;/whyx20221018/43/5000.jpg;https://fxhz.wgly.hangzhou.gov.cn/oss/whyx20221018/43/5000.jpg
1;198;农家书屋;转塘街道大诸桥社区图书室;杭州市西湖区大诸桥社区167号;杭州市;西湖区;120.091879;30.169423;周一至周五9：00-16：00 周二和周四晚上19：00-21：00 周六周日13：00-16：00;/whyx20221018/43/11937.jpg;https://fxhz.wgly.hangzhou.gov.cn/oss/whyx20221018/43/11937.jpg
3;200;文化活动室;御道社区文化活动室;杭州市上城区御道社区文化活动室;杭州市;上城区;120.2330015;30.27814404;nan;/whyx20221018/42/8967.jpg;https://fxhz.wgly.hangzhou.gov.cn/oss/whyx20221018/42/8967.jpg
3;200;文化活动室;红石板社区文化活动室;杭州市拱墅区红石板社区文化活动室;杭州市;拱墅区;120.1493326;30.28599593;nan;/whyx20221018/42/8556.jpg;https://fxhz.wgly.hangzhou.gov.cn/oss/whyx20221018/42/8556.jpg
16;212;文化家园;东河社区文化家园活动室;拱墅区建国北路537号;杭州市;拱墅区;120.175;30.2721;9:00-17:00;/whyx20221018/42/6051.jpg;https://fxhz.wgly.hangzhou.gov.cn/oss/whyx20221018/42/6051.jpg
16;212;文化家园;绿茵园社区文化家园;杭州市萧山区永金路235号;杭州市;萧山区;120.2704009;30.18045948;周一-周五上午9点-11点，下午2点-5点;/whyx20221018/41/8302.jpg;https://fxhz.wgly.hangzhou.gov.cn/oss/whyx20221018/41/8302.jpg
17;219;机房/广播站;机房;杭州市杭州江干区天城路91号科创中心A座103室;杭州市;钱塘区;120.204527;30.286527;不开放;/whyx20221018/41/8009.jpg;https://fxhz.wgly.hangzhou.gov.cn/oss/whyx20221018/41/8009.jpg
15;211;文化礼堂;大同镇黄垅村文化礼堂;杭州市建德市大同镇黄垅村;杭州市;建德市;119.085888;29.32646;周一到周日09:00-17:00;/whyx20221018/41/16251.jpg;https://fxhz.wgly.hangzhou.gov.cn/oss/whyx20221018/41/16251.jpg
15;211;文化礼堂;新登镇湘主村文化礼堂;富阳区新登镇湘主村村委楼;杭州市;富阳区;119.69568;30.0182;08:00-20:00;/whyx20221018/41/14868.jpg;https://fxhz.wgly.hangzhou.gov.cn/oss/whyx20221018/41/14868.jpg
15;211;文化礼堂;场口镇叶盛村文化礼堂;富阳区场口镇叶盛村;杭州市;富阳区;119.86911;29.91385;08:00-20:00;/whyx20221018/41/14750.jpg;https://fxhz.wgly.hangzhou.gov.cn/oss/whyx20221018/41/14750.jpg
3;200;文化活动室;西一社区星光活动中心;杭州市拱墅区西一社区星光活动中心;杭州市;拱墅区;120.1488121;30.3109302;nan;/whyx20221018/40/8866.jpg;https://fxhz.wgly.hangzhou.gov.cn/oss/whyx20221018/40/8866.jpg
17;219;机房/广播站;机房;杭州市晨光绿苑（南苑）1、2幢117（车库）室;杭州市;钱塘区;120.268761;30.311305;不开放;/whyx20221018/40/7997.jpg;https://fxhz.wgly.hangzhou.gov.cn/oss/whyx20221018/40/7997.jpg
1;198;农家书屋;留下街道金鱼井社区图书室;杭州市西湖区百家园路99-1;杭州市;西湖区;120.061329;30.248323;周一至周五9:00-11:30 13:30-16:30;/whyx20221018/40/11646.jpg;https://fxhz.wgly.hangzhou.gov.cn/oss/whyx20221018/40/11646.jpg
13;209;老年活动中心;红界村老年活动中心;萧山区党湾镇红界村5组1号;杭州市;萧山区;120.513151;30.233727;周一到周日8:00-16:00;/whyx20221018/4/7447.jpg;https://fxhz.wgly.hangzhou.gov.cn/oss/whyx20221018/4/7447.jpg
15;211;文化礼堂;大同镇管村桥村文化礼堂;杭州市建德市大同镇管村桥村;杭州市;建德市;119.012766;29.289005;周一到周日09:00-17:00;/whyx20221018/4/16254.jpg;https://fxhz.wgly.hangzhou.gov.cn/oss/whyx20221018/4/16254.jpg
15;211;文化礼堂;常安镇小剡村文化礼堂;富阳区常安镇小剡村1号;杭州市;富阳区;119.97585;29.89036;08:00-20:00;/whyx20221018/4/14865.jpg;https://fxhz.wgly.hangzhou.gov.cn/oss/whyx20221018/4/14865.jpg
15;211;文化礼堂;大同镇禹甸村文化礼堂;杭州市建德市大同镇618县道;杭州市;建德市;119.068592;29.272974;周一到周日09:00-17:00;/whyx20221018/39/16231.jpg;https://fxhz.wgly.hangzhou.gov.cn/oss/whyx20221018/39/16231.jpg
15;211;文化礼堂;岛石镇银坑村文化礼堂;浙江省杭州市临安区岛石镇银坑村村委;杭州市;临安区;118.976265;30.331892;08:00-17:00;/whyx20221018/39/16150.jpg;https://fxhz.wgly.hangzhou.gov.cn/oss/whyx20221018/39/16150.jpg
15;211;文化礼堂;洋溪街道友谊村文化礼堂;杭州市建德市洋溪街道友谊村;杭州市;建德市;119.312483;29.531439;周一至周日9:00-17:00;/whyx20221018/39/14770.jpg;https://fxhz.wgly.hangzhou.gov.cn/oss/whyx20221018/39/14770.jpg
3;200;文化活动室;高田陈社区文化活动室;杭州市萧山区临浦镇高田陈社区文化活动室;杭州市;萧山区;120.2730335;30.16120463;nan;/whyx20221018/38/8516.jpg;https://fxhz.wgly.hangzhou.gov.cn/oss/whyx20221018/38/8516.jpg
3;200;文化活动室;茶市街文化活动室;杭州市西湖区茶市街文化活动室;杭州市;西湖区;120.0546511;30.2456721;nan;/whyx20221018/38/8435.jpg;https://fxhz.wgly.hangzhou.gov.cn/oss/whyx20221018/38/8435.jpg
17;219;机房/广播站;发射塔;杭州市余杭区236县道西50米;杭州市;余杭区;120.085017;30.39689;不开放;/whyx20221018/38/8024.jpg;https://fxhz.wgly.hangzhou.gov.cn/oss/whyx20221018/38/8024.jpg
18;213;文化服务点/阅览室;公共数字文化服务点;杭州市南环路4354号;杭州市;滨江区;120.166418;30.177817;nan;/whyx20221018/38/7980.jpg;https://fxhz.wgly.hangzhou.gov.cn/oss/whyx20221018/38/7980.jpg
5;202;剧院;杭州市文化中心;杭州市文化中心;杭州市;上城区;120.163236;30.2528;nan;/whyx20221018/38/7809.jpg;https://fxhz.wgly.hangzhou.gov.cn/oss/whyx20221018/38/7809.jpg
11;207;青少年宫;伟民村青少年宫;杭州市萧山区河上镇槐树路57号;杭州市;萧山区;120.163708;29.944437;周一至周日8：00-20:00;/whyx20221018/37/7945.jpg;https://fxhz.wgly.hangzhou.gov.cn/oss/whyx20221018/37/7945.jpg
15;211;文化礼堂;大同镇郎家村文化礼堂;杭州市建德市大同镇郎家村古城路133号靠近郎家村;杭州市;建德市;119.109261;29.297836;周一到周日09:00-17:00;/whyx20221018/37/16248.jpg;https://fxhz.wgly.hangzhou.gov.cn/oss/whyx20221018/37/16248.jpg
15;211;文化礼堂;渌渚镇岘口村文化礼堂;富阳区渌渚镇岘口村同心路33号;杭州市;富阳区;119.73365;29.8935;08:00-20:00;/whyx20221018/37/14871.jpg;https://fxhz.wgly.hangzhou.gov.cn/oss/whyx20221018/37/14871.jpg
16;212;文化家园;运新社区文化家园;杭州市上城区四季青街道运新社区文化服务中心;杭州市;上城区;120.224843;30.271847;nan;/whyx20221018/36/8826.jpg;https://fxhz.wgly.hangzhou.gov.cn/oss/whyx20221018/36/8826.jpg
17;219;机房/广播站;机房;杭州市晓时代公寓6幢底商9;杭州市;钱塘区;120.24556;30.301372;不开放;/whyx20221018/36/8004.jpg;https://fxhz.wgly.hangzhou.gov.cn/oss/whyx20221018/36/8004.jpg
13;209;老年活动中心;明智村老年活动中心;临平区运河街道明智村2组湖津荡91-6号;杭州市;临平区;120.322435;30.477119;周一至周日8:30-16:30;/whyx20221018/36/5049.jpg;https://fxhz.wgly.hangzhou.gov.cn/oss/whyx20221018/36/5049.jpg
15;211;文化礼堂;银湖街道金竺村文化礼堂;杭州市富阳区银湖街道金竺村下浒1号;杭州市;富阳区;119.88535;30.1591;08:00-20:00;/whyx20221018/36/15741.jpg;https://fxhz.wgly.hangzhou.gov.cn/oss/whyx20221018/36/15741.jpg
15;211;文化礼堂;义蓬街道南沙村文化礼堂;杭州市钱塘区义蓬街道南沙村委;杭州市;钱塘区;120.52382;30.311793;08:30-11:00;/whyx20221018/36/15341.jpg;https://fxhz.wgly.hangzhou.gov.cn/oss/whyx20221018/36/15341.jpg
3;200;文化活动室;珠儿潭社区文化服务中心;杭州市拱墅区珠儿潭社区文化服务中心;杭州市;拱墅区;120.1806683;30.27179919;nan;/whyx20221018/35/9031.jpg;https://fxhz.wgly.hangzhou.gov.cn/oss/whyx20221018/35/9031.jpg
3;200;文化活动室;中北社区文化活动室;杭州市拱墅区武林街道中北社区文化活动室;杭州市;拱墅区;120.163021;30.265077;nan;/whyx20221018/35/8861.jpg;https://fxhz.wgly.hangzhou.gov.cn/oss/whyx20221018/35/8861.jpg
16;212;文化家园;江滨社区文化家园;杭州市淳安县千岛湖镇绿城度假公寓12号楼;杭州市;淳安县;119.040279;29.607026;08:30-17:00;/whyx20221018/35/8450.jpg;https://fxhz.wgly.hangzhou.gov.cn/oss/whyx20221018/35/8450.jpg
18;213;文化服务点/阅览室;公共数字文化服务点;杭州市杭大新村23-48-1;杭州市;西湖区;120.137024;30.266233;nan;/whyx20221018/35/7965.jpg;https://fxhz.wgly.hangzhou.gov.cn/oss/whyx20221018/35/7965.jpg
16;212;文化家园;翠苑一区社区文化家园;杭州市西湖区翠苑一区26、27幢;杭州市;西湖区;120.127747;30.285369;周一至周日8:30-17:00;/whyx20221018/35/7545.jpg;https://fxhz.wgly.hangzhou.gov.cn/oss/whyx20221018/35/7545.jpg
3;200;文化活动室;景安社区综合性文化服务中心;杭州市拱墅区石桥街道永清路8号;杭州市;拱墅区;120.18;30.33;每周一、二、四;/whyx20221018/35/6076.jpg;https://fxhz.wgly.hangzhou.gov.cn/oss/whyx20221018/35/6076.jpg
15;211;文化礼堂;洞桥镇大溪村文化礼堂;富阳区洞桥镇大溪村堰头1号;杭州市;富阳区;119.59231;30.04205;08:00-20:00;/whyx20221018/35/16228.jpg;https://fxhz.wgly.hangzhou.gov.cn/oss/whyx20221018/35/16228.jpg
1;198;农家书屋;蜀山街道戚家池社区图书室;杭州市萧山区蜀山街道广悦公寓;杭州市;萧山区;120.271458;30.136355;未开放;/whyx20221018/35/11348.jpg;https://fxhz.wgly.hangzhou.gov.cn/oss/whyx20221018/35/11348.jpg
3;200;文化活动室;十五家园文化活动室;杭州市拱墅区十五家园文化活动室;杭州市;拱墅区;120.1704465;30.26839159;nan;/whyx20221018/34/8806.jpg;https://fxhz.wgly.hangzhou.gov.cn/oss/whyx20221018/34/8806.jpg
19;214;公共阅报栏;杭州市钱塘区新湾街道第一小学南门口阅报栏;杭州市钱塘区新湾街道盛凌路31号;杭州市;钱塘区;120.541804;30.275473;全天开放;/whyx20221018/34/7661.jpg;https://fxhz.wgly.hangzhou.gov.cn/oss/whyx20221018/34/7661.jpg
15;211;文化礼堂;渔山乡五岭村文化礼堂;富阳区渔山乡五岭村;杭州市;富阳区;120.1104;30.03738;08:00-20:00;/whyx20221018/34/14900.jpg;https://fxhz.wgly.hangzhou.gov.cn/oss/whyx20221018/34/14900.jpg
15;211;文化礼堂;新合乡松山村文化礼堂;杭州市桐庐县新合乡松山村村委对面;杭州市;桐庐县;119.899741;29.706722;08:30:00-17:00:42;/whyx20221018/34/14856.jpg;https://fxhz.wgly.hangzhou.gov.cn/oss/whyx20221018/34/14856.jpg
3;200;文化活动室;夹城巷社区文化活动室;杭州市拱墅区米市巷街道夹城巷社区活动室;杭州市;拱墅区;120.152723;30.267799;nan;/whyx20221018/33/8719.jpg;https://fxhz.wgly.hangzhou.gov.cn/oss/whyx20221018/33/8719.jpg
16;212;文化家园;井头王社区文化家园;杭州市萧山区新塘街道井头王社区文化家园;杭州市;萧山区;120.289944;30.164067;nan;/whyx20221018/33/8638.jpg;https://fxhz.wgly.hangzhou.gov.cn/oss/whyx20221018/33/8638.jpg
3;200;文化活动室;河滨社区文化活动室;杭州市西湖区蒋村街道河滨社区文化活动室;杭州市;西湖区;120.1039131;30.27367653;nan;/whyx20221018/33/8548.jpg;https://fxhz.wgly.hangzhou.gov.cn/oss/whyx20221018/33/8548.jpg
3;200;文化活动室;彩虹社区文化活动室;杭州市富阳区彩虹社区文化活动室;杭州市;富阳区;119.927361;30.09722603;nan;/whyx20221018/33/8430.jpg;https://fxhz.wgly.hangzhou.gov.cn/oss/whyx20221018/33/8430.jpg
18;213;文化服务点/阅览室;公共数字文化服务点;杭州市万科草庄1幢102室;杭州市;钱塘区;120.2137924;30.308289;nan;/whyx20221018/33/7985.jpg;https://fxhz.wgly.hangzhou.gov.cn/oss/whyx20221018/33/7985.jpg
13;209;老年活动中心;沈家坞村老年活动中心;杭州市临安区潜川镇沈家坞村;杭州市;临安区;119.314744;30.035276;全天开放;/whyx20221018/32/4811.jpg;https://fxhz.wgly.hangzhou.gov.cn/oss/whyx20221018/32/4811.jpg
15;211;文化礼堂;大同镇儒博村文化礼堂;杭州市建德市大同镇儒博村;杭州市;建德市;119.050316;29.267071;周一到周日09:00-17:00;/whyx20221018/32/16243.jpg;https://fxhz.wgly.hangzhou.gov.cn/oss/whyx20221018/32/16243.jpg
3;200;文化活动室;柳营社区文化活动室;杭州市拱墅区柳营社区文化活动室;杭州市;拱墅区;120.169185;30.26490054;nan;/whyx20221018/31/8702.jpg;https://fxhz.wgly.hangzhou.gov.cn/oss/whyx20221018/31/8702.jpg
13;209;老年活动中心;丽江社区居家养老服务照料中心;杭州市上城区九堡街道丽江社区居家养老服务照料中心;杭州市;上城区;120.163891;30.246992;09:00-11:00;/whyx20221018/31/8658.jpg;https://fxhz.wgly.hangzhou.gov.cn/oss/whyx20221018/31/8658.jpg
3;200;文化活动室;海月桥社区文化活动室;杭州市上城区海月桥社区文化活动室;杭州市;上城区;120.1560557;30.208331;nan;/whyx20221018/31/8528.jpg;https://fxhz.wgly.hangzhou.gov.cn/oss/whyx20221018/31/8528.jpg
3;200;文化活动室;半山田园基层综合文化服务中心;杭州市拱墅区半山田园基层综合文化服务中心;杭州市;拱墅区;120.2066385;30.36251909;nan;/whyx20221018/31/8410.jpg;https://fxhz.wgly.hangzhou.gov.cn/oss/whyx20221018/31/8410.jpg
17;219;机房/广播站;杭州市富阳区里山镇安顶山发射台;杭州市富阳区里山镇安顶山顶;杭州市;富阳区;120.075663;29.993758;不开放;/whyx20221018/31/8036.jpg;https://fxhz.wgly.hangzhou.gov.cn/oss/whyx20221018/31/8036.jpg
14;210;文体中心;安阳乡综合文化站;淳安县安阳乡集镇文化站;杭州市;淳安县;118.832792;29.417576;08:30-21:30;/whyx20221018/31/6397.jpg;https://fxhz.wgly.hangzhou.gov.cn/oss/whyx20221018/31/6397.jpg
9;205;体育设施;杭南村室外篮球场;临平区运河街道杭南村杭南路8号西侧;杭州市;临平区;120.266087;30.485573;全天开放;/whyx20221018/31/5044.jpg;https://fxhz.wgly.hangzhou.gov.cn/oss/whyx20221018/31/5044.jpg
15;211;文化礼堂;太阳镇寨村村文化礼堂;浙江省杭州市临安区太阳镇寨村寨里12号;杭州市;临安区;119.335712;30.301339;09:00-17:00;/whyx20221018/31/15043.jpg;https://fxhz.wgly.hangzhou.gov.cn/oss/whyx20221018/31/15043.jpg
3;200;文化活动室;三里家园社区综合文化服务中心;杭州市拱墅区三里家园社区综合文化服务中心;杭州市;拱墅区;120.1806683;30.27179919;nan;/whyx20221018/30/8794.jpg;https://fxhz.wgly.hangzhou.gov.cn/oss/whyx20221018/30/8794.jpg
3;200;文化活动室;青年路社区文化活动室;杭州市上城区湖滨街道青年路社区文化活动室;杭州市;上城区;120.163876;30.249993;nan;/whyx20221018/30/8563.jpg;https://fxhz.wgly.hangzhou.gov.cn/oss/whyx20221018/30/8563.jpg
19;214;公共阅报栏;杭州市钱塘区闸口路新湾初级中学阅报栏;杭州市钱塘区新湾街道闸口路;杭州市;钱塘区;120.542854;30.282167;全天开放;/whyx20221018/30/7658.jpg;https://fxhz.wgly.hangzhou.gov.cn/oss/whyx20221018/30/7658.jpg
16;212;文化家园;百尺娄社区文化家园;杭州市萧山区城厢街道百尺娄社区蔡家弄32号;杭州市;萧山区;120.270561;30.158004;周一至周五8:30-11:30，13:30-16:30;/whyx20221018/30/7478.jpg;https://fxhz.wgly.hangzhou.gov.cn/oss/whyx20221018/30/7478.jpg
13;209;老年活动中心;杭州市老年活动中心城北馆;杭州市拱墅区康桥街道顾扬路200号;杭州市;拱墅区;120.142735;30.350341;周一至周五8：30-16:00;/whyx20221018/30/6125.jpg;https://fxhz.wgly.hangzhou.gov.cn/oss/whyx20221018/30/6125.jpg
1;198;农家书屋;元谷创意园职工之家;杭州市拱墅区湖墅街道元谷长乐园;杭州市;拱墅区;120.145514;30.302743;周一至周日09:00-17:00;/whyx20221018/30/13088.jpg;https://fxhz.wgly.hangzhou.gov.cn/oss/whyx20221018/30/13088.jpg
13;209;老年活动中心;格畈社区日间照料中心;杭州市上城区九堡街道格畈社区日间照料中心;杭州市;上城区;120.192475;30.285673;09:00-11:00;/whyx20221018/3/8647.jpg;https://fxhz.wgly.hangzhou.gov.cn/oss/whyx20221018/3/8647.jpg
14;210;文体中心;盈丰街道文化站;杭州市萧山区盈丰街道;杭州市;萧山区;120.268298;30.21921;nan;/whyx20221018/3/8236.jpg;https://fxhz.wgly.hangzhou.gov.cn/oss/whyx20221018/3/8236.jpg
17;219;机房/广播站;机房;杭州市袁浦街联建房5号楼北1-2间（袁浦街49号商铺）;杭州市;西湖区;120.1216404;30.11898217;不开放;/whyx20221018/3/8010.jpg;https://fxhz.wgly.hangzhou.gov.cn/oss/whyx20221018/3/8010.jpg
18;213;文化服务点/阅览室;公共数字文化服务点;杭州市黄龙路5号黄龙恒励大厦 一 层 B 室;杭州市;西湖区;120.135774;30.269302;nan;/whyx20221018/3/7994.jpg;https://fxhz.wgly.hangzhou.gov.cn/oss/whyx20221018/3/7994.jpg
15;211;文化礼堂;河庄街道建一村文化礼堂;杭州市钱塘区河庄街道建一村;杭州市;钱塘区;120.484512;30.294094;周一至周日08:30-20:30;/whyx20221018/3/15384.jpg;https://fxhz.wgly.hangzhou.gov.cn/oss/whyx20221018/3/15384.jpg
15;211;文化礼堂;太阳镇锦坑桥村文化礼堂;浙江省杭州市临安区太阳镇锦坑桥村82号;杭州市;临安区;119.277771;30.121146;09:00-17:00;/whyx20221018/3/15054.jpg;https://fxhz.wgly.hangzhou.gov.cn/oss/whyx20221018/3/15054.jpg
17;219;机房/广播站;机房;杭州市光复路25号3-4楼;杭州市;拱墅区;120.17117;30.241955;不开放;/whyx20221018/29/8016.jpg;https://fxhz.wgly.hangzhou.gov.cn/oss/whyx20221018/29/8016.jpg
5;202;剧院;金沙湖大剧院;杭州市钱塘区金沙大道与幸福南路交叉路口往东南约150米(金沙湖公园);杭州市;钱塘区;120.314309;30.312228;09:00-23:30;/whyx20221018/29/7817.jpg;https://fxhz.wgly.hangzhou.gov.cn/oss/whyx20221018/29/7817.jpg
8;204;科技馆;南堡湿地科普馆;桐庐县分水镇富源村;杭州市;桐庐县;119.387908;29.972663;周一至周日8:00--17:31;/whyx20221018/29/6180.jpg;https://fxhz.wgly.hangzhou.gov.cn/oss/whyx20221018/29/6180.jpg
19;214;公共阅报栏;城后村广场电子屏;杭州市临安区潜川镇城后村;杭州市;临安区;119.383304;30.067931;全天开放;/whyx20221018/29/4782.jpg;https://fxhz.wgly.hangzhou.gov.cn/oss/whyx20221018/29/4782.jpg
1;198;农家书屋;瓜沥镇单木桥村农家书屋;杭州市萧山区瓜沥镇单木桥村村民委员会;杭州市;萧山区;120.489551;30.199688;周一至周五8:00-11:00；13:00-17：00;/whyx20221018/29/11913.jpg;https://fxhz.wgly.hangzhou.gov.cn/oss/whyx20221018/29/11913.jpg
17;219;机房/广播站;杭州市临安区融媒体中心大楼;杭州市临安区锦城街道广电路98号;杭州市;临安区;119.70868;30.230305;不开放;/whyx20221018/28/7953.jpg;https://fxhz.wgly.hangzhou.gov.cn/oss/whyx20221018/28/7953.jpg
17;219;机房/广播站;高联村多媒体室;杭州市桐庐县分水镇高联村村委;杭州市;桐庐县;119.338745;29.95682;每天8:30-16:30;/whyx20221018/28/7872.jpg;https://fxhz.wgly.hangzhou.gov.cn/oss/whyx20221018/28/7872.jpg
3;200;文化活动室;上城区文化馆（惠民路馆）;杭州市上城区清波惠民路20号;杭州市;上城区;120.170336;30.242827;周一至周日9:00-20:30;/whyx20221018/28/10689.jpg;https://fxhz.wgly.hangzhou.gov.cn/oss/whyx20221018/28/10689.jpg
16;212;文化家园;曙光社区文化家园;杭州市西湖区灵隐街道曙光社区;杭州市;西湖区;120.126112;30.262384;nan;/whyx20221018/27/8698.jpg;https://fxhz.wgly.hangzhou.gov.cn/oss/whyx20221018/27/8698.jpg
7;203;美术馆;余杭区美术馆;杭州市余杭区木桥浜路120号;杭州市;余杭区;120.297017;30.419692;nan;/whyx20221018/27/7837.jpg;https://fxhz.wgly.hangzhou.gov.cn/oss/whyx20221018/27/7837.jpg
4;201;非遗馆;淳安县非物质文化遗产馆;淳安县千岛湖镇珍珠一路113号;杭州市;淳安县;119.11238;29.595426;周一至周五8：30---17：30;/whyx20221018/27/7800.jpg;https://fxhz.wgly.hangzhou.gov.cn/oss/whyx20221018/27/7800.jpg
14;210;文体中心;南阳街道文体中心;浙江省杭州市萧山区南阳街道南虹路中兴金座西侧约120米;杭州市;萧山区;120.445254;30.262188;周一至周日08:00-11:30,13:30-20:00;/whyx20221018/27/7299.jpg;https://fxhz.wgly.hangzhou.gov.cn/oss/whyx20221018/27/7299.jpg
13;209;老年活动中心;外伍村老年活动中心;杭州市临安区潜川镇外伍村;杭州市;临安区;119.405385;30.020504;全天开放;/whyx20221018/27/4843.jpg;https://fxhz.wgly.hangzhou.gov.cn/oss/whyx20221018/27/4843.jpg
15;211;文化礼堂;百江镇百江村文化礼堂;杭州市桐庐县百江镇百江自然村紫燕路老政府右侧;杭州市;桐庐县;119.357833;29.848254;周一到周日09:00-17:00;/whyx20221018/27/16402.jpg;https://fxhz.wgly.hangzhou.gov.cn/oss/whyx20221018/27/16402.jpg
17;219;机房/广播站;新闻演播室;杭州市余杭区文一西路1500号;杭州市;余杭区;119.978959;30.27365;不开放;/whyx20221018/26/8031.jpg;https://fxhz.wgly.hangzhou.gov.cn/oss/whyx20221018/26/8031.jpg
18;213;文化服务点/阅览室;公共数字文化服务点;杭州市余杭区五常街道望庄东院2-4-102;杭州市;余杭区;120.030387;30.246198;nan;/whyx20221018/26/7973.jpg;https://fxhz.wgly.hangzhou.gov.cn/oss/whyx20221018/26/7973.jpg
2;199;文博场馆;浙江革命烈士纪念馆;杭州市上城区万松岭路100——1号;杭州市;上城区;120.159661;30.230323;周一至周日09:00-11:00 13:30-16:00;/whyx20221018/26/7892.jpg;https://fxhz.wgly.hangzhou.gov.cn/oss/whyx20221018/26/7892.jpg
14;210;文体中心;界首乡综合文化站;淳安县界首乡姚家村姚家130号;杭州市;淳安县;118.79432;29.543807;08:30-17:00;/whyx20221018/26/6392.jpg;https://fxhz.wgly.hangzhou.gov.cn/oss/whyx20221018/26/6392.jpg
15;211;文化礼堂;湍口镇童家村文化礼堂;浙江省杭州市临安区湍口镇童家村童家;杭州市;临安区;119.210731;29.974632;08:00-18:00;/whyx20221018/26/14980.jpg;https://fxhz.wgly.hangzhou.gov.cn/oss/whyx20221018/26/14980.jpg
16;212;文化家园;临东社区文化家园;杭州市萧山区临浦镇临东社区文化家园;杭州市;萧山区;120.258405;30.04061;nan;/whyx20221018/25/8681.jpg;https://fxhz.wgly.hangzhou.gov.cn/oss/whyx20221018/25/8681.jpg
11;207;青少年宫;萧山区青少年宫河上分宫;杭州市萧山区河上镇文化路与槐树路交叉口西北150米;杭州市;萧山区;120.167056;29.941612;nan;/whyx20221018/25/7857.jpg;https://fxhz.wgly.hangzhou.gov.cn/oss/whyx20221018/25/7857.jpg
15;211;文化礼堂;大同镇葛岭村文化礼堂;杭州市建德市大同镇葛岭村村名委员会;杭州市;建德市;119.037053;29.297763;周一到周日09:00-17:00;/whyx20221018/25/16255.jpg;https://fxhz.wgly.hangzhou.gov.cn/oss/whyx20221018/25/16255.jpg
15;211;文化礼堂;乾潭镇幸福村文化礼堂;杭州市建德市乾潭镇;杭州市;建德市;119.540693;29.619289;00:00:00-00:00:00;/whyx20221018/25/15313.jpg;https://fxhz.wgly.hangzhou.gov.cn/oss/whyx20221018/25/15313.jpg
15;211;文化礼堂;新桐乡小桐洲村文化礼堂;杭州市富阳区新桐乡小桐洲村;杭州市;富阳区;119.81924;29.9073;08:00-20:00;/whyx20221018/25/14864.jpg;https://fxhz.wgly.hangzhou.gov.cn/oss/whyx20221018/25/14864.jpg
17;219;机房/广播站;机房;杭州市杨梅山路399-7号商铺;杭州市;西湖区;120.052081;30.2348484;不开放;/whyx20221018/24/8011.jpg;https://fxhz.wgly.hangzhou.gov.cn/oss/whyx20221018/24/8011.jpg
18;213;文化服务点/阅览室;公共数字文化服务点;杭州市黄龙路5号黄龙恒励大厦 二 层 B 室;杭州市;西湖区;120.135774;30.269302;nan;/whyx20221018/24/7993.jpg;https://fxhz.wgly.hangzhou.gov.cn/oss/whyx20221018/24/7993.jpg
16;212;文化家园;开欣社区文化家园;杭州市萧山区宁围街道开欣社区通惠北路与建设一路红路灯口雅棠轩小区1871-1873号;杭州市;萧山区;120.283943;30.193591;周一至周日08:30-17：00;/whyx20221018/23/8290.jpg;https://fxhz.wgly.hangzhou.gov.cn/oss/whyx20221018/23/8290.jpg
18;213;文化服务点/阅览室;公共数字文化服务点;杭州市西湖区南都德加公寓西区10幢3单元202室;杭州市;西湖区;120.0986997;30.28311286;nan;/whyx20221018/23/7958.jpg;https://fxhz.wgly.hangzhou.gov.cn/oss/whyx20221018/23/7958.jpg
13;209;老年活动中心;七坑村老年活动中心;杭州市临安区潜川镇七坑村;杭州市;临安区;119.420697;30.001352;全天开放;/whyx20221018/23/4803.jpg;https://fxhz.wgly.hangzhou.gov.cn/oss/whyx20221018/23/4803.jpg
15;211;文化礼堂;大同镇徐韩村文化礼堂;杭州市建德市大同镇徐韩村618县道161号靠近韩家;杭州市;建德市;119.099977;29.290685;周一到周日09:00-17:00;/whyx20221018/23/16235.jpg;https://fxhz.wgly.hangzhou.gov.cn/oss/whyx20221018/23/16235.jpg
15;211;文化礼堂;三都镇圣江村文化礼堂;杭州市建德市三都镇圣江村江台自然村;杭州市;建德市;119.596748;29.531715;夏令时08:00-18:00 冬令时08:00-17:00;/whyx20221018/23/15207.jpg;https://fxhz.wgly.hangzhou.gov.cn/oss/whyx20221018/23/15207.jpg
3;200;文化活动室;卖鱼桥社区文化服务中心;杭州市拱墅区卖鱼桥社区文化服务中心;杭州市;拱墅区;120.1410347;30.29569387;nan;/whyx20221018/22/8710.jpg;https://fxhz.wgly.hangzhou.gov.cn/oss/whyx20221018/22/8710.jpg
3;200;文化活动室;九龙社区文化活动室;杭州市富阳区九龙社区文化活动室;杭州市;富阳区;119.972784;30.164991;nan;/whyx20221018/22/8666.jpg;https://fxhz.wgly.hangzhou.gov.cn/oss/whyx20221018/22/8666.jpg
17;219;机房/广播站;萧山区融媒体中心;杭州市萧山区城厢镇道源路188号;杭州市;萧山区;120.280631;30.152494;不开放;/whyx20221018/22/8028.jpg;https://fxhz.wgly.hangzhou.gov.cn/oss/whyx20221018/22/8028.jpg
5;202;剧院;余杭小百花越剧艺术中心;杭州市藕花洲大街西段620号;杭州市;临平区;120.251723;30.392976;nan;/whyx20221018/22/7805.jpg;https://fxhz.wgly.hangzhou.gov.cn/oss/whyx20221018/22/7805.jpg
15;211;文化礼堂;新街街道陈家园村文化礼堂;杭州市萧山区陈家园村215东北方向42米萧山区新街街道陈家园社区卫生服务站;杭州市;萧山区;120.376832;30.188212;周一至周日9:00-17:00;/whyx20221018/22/14849.jpg;https://fxhz.wgly.hangzhou.gov.cn/oss/whyx20221018/22/14849.jpg
1;198;农家书屋;瓜沥镇大义村农家书屋;杭州市萧山区瓜沥镇大义村村民委员会;杭州市;萧山区;120.443086;30.145564;周一至周五8:00-11:00；13:00-17：00;/whyx20221018/22/11938.jpg;https://fxhz.wgly.hangzhou.gov.cn/oss/whyx20221018/22/11938.jpg
18;213;文化服务点/阅览室;公共数字文化服务点;杭州市西湖区嘉绿景苑西园3-101商铺;杭州市;西湖区;120.098352;30.271152;nan;/whyx20221018/21/7978.jpg;https://fxhz.wgly.hangzhou.gov.cn/oss/whyx20221018/21/7978.jpg
3;200;文化活动室;花园社区邻聚力活动中心;杭州市上城区笕桥街道花园社区邻聚力活动中心;杭州市;上城区;120.205536;30.307422;nan;/whyx20221018/20/8590.jpg;https://fxhz.wgly.hangzhou.gov.cn/oss/whyx20221018/20/8590.jpg
17;219;机房/广播站;机房;杭州市拱墅大关路297号五楼朝南五间、南一间;杭州市;拱墅区;119.876527;29.907155;不开放;/whyx20221018/20/8008.jpg;https://fxhz.wgly.hangzhou.gov.cn/oss/whyx20221018/20/8008.jpg
15;211;文化礼堂;大同镇黄山头村文化礼堂;杭州市建德市大同镇黄山头村市民西路338号靠近黄山头村村名委员会;杭州市;建德市;119.0986;29.304765;周一到周日08:00-17:00;/whyx20221018/20/16250.jpg;https://fxhz.wgly.hangzhou.gov.cn/oss/whyx20221018/20/16250.jpg
15;211;文化礼堂;湖源乡新三村文化礼堂;富阳区湖源乡新三村;杭州市;富阳区;119.98439;29.81326;08:00-20:00;/whyx20221018/20/14832.jpg;https://fxhz.wgly.hangzhou.gov.cn/oss/whyx20221018/20/14832.jpg
15;211;文化礼堂;湖源乡窈口村文化礼堂;富阳区湖源乡窈口村;杭州市;富阳区;119.95862;29.78138;08:00-20:00;/whyx20221018/20/14751.jpg;https://fxhz.wgly.hangzhou.gov.cn/oss/whyx20221018/20/14751.jpg
16;212;文化家园;开悦社区文化家园;杭州市萧山区宁围街道加贸路14号开悦社区居委会;杭州市;萧山区;120.265657;30.205514;nan;/whyx20221018/2/8291.jpg;https://fxhz.wgly.hangzhou.gov.cn/oss/whyx20221018/2/8291.jpg
2;199;文博场馆;王晋纪念馆;杭州市桐庐县分水镇塘源村;杭州市;桐庐县;119.424896;29.894621;"周一至周日8：30-16;30";/whyx20221018/2/7878.jpg;https://fxhz.wgly.hangzhou.gov.cn/oss/whyx20221018/2/7878.jpg
16;212;文化家园;金家岭 中村 村口社区文化家园;杭州市西湖区忆音路71号村口家园30幢配套公建24;杭州市;西湖区;120.069198;30.159311;"周一至周日9:00-11:30;13：30-16:30";/whyx20221018/2/7588.jpg;https://fxhz.wgly.hangzhou.gov.cn/oss/whyx20221018/2/7588.jpg
9;205;体育设施;临浦体育馆;杭州市萧山区临浦镇人民路24号;杭州市;萧山区;120.246558;30.046181;周一至周日6:00-21:00;/whyx20221018/2/7467.jpg;https://fxhz.wgly.hangzhou.gov.cn/oss/whyx20221018/2/7467.jpg
13;209;老年活动中心;牧亭村老年活动室;杭州市临安区潜川镇牧亭村;杭州市;临安区;119.392995;30.091521;周一至周日08:00-10:00;/whyx20221018/2/4802.jpg;https://fxhz.wgly.hangzhou.gov.cn/oss/whyx20221018/2/4802.jpg
15;211;文化礼堂;大同镇寻芳村文化礼堂;杭州市建德市大同镇寻芳村;杭州市;建德市;119.062908;29.311244;周一到周日09:00-17:00;/whyx20221018/2/16234.jpg;https://fxhz.wgly.hangzhou.gov.cn/oss/whyx20221018/2/16234.jpg
15;211;文化礼堂;下涯镇下涯村文化礼堂;杭州市建德市下涯镇下涯村埠头自然村;杭州市;建德市;119.37823;29.522586;周一至周日9:00-17:00;/whyx20221018/2/14885.jpg;https://fxhz.wgly.hangzhou.gov.cn/oss/whyx20221018/2/14885.jpg
2;199;文博场馆;印文化体验馆;浙江省杭州市临安区昌化镇后营村8300印文化体验馆;杭州市;临安区;119.197819;30.175567;08:30-16:30;/whyx20221018/19/9475.jpg;https://fxhz.wgly.hangzhou.gov.cn/oss/whyx20221018/19/9475.jpg
17;219;机房/广播站;机房;杭州市良渚镇金家渡路7号;杭州市;余杭区;120.090134;30.340673;不开放;/whyx20221018/19/7998.jpg;https://fxhz.wgly.hangzhou.gov.cn/oss/whyx20221018/19/7998.jpg
18;213;文化服务点/阅览室;公共数字文化服务点;杭州市绍兴路400弄6号（浙报理想智库创意产业园1-H—1-M）;杭州市;拱墅区;120.1610534;30.30436422;nan;/whyx20221018/19/7961.jpg;https://fxhz.wgly.hangzhou.gov.cn/oss/whyx20221018/19/7961.jpg
14;210;文体中心;留下街道综合文化站;杭州市西湖区留下街道杨家牌楼社区126号;杭州市;西湖区;120.072462;30.243447;周一至周日8:30-16:30;/whyx20221018/19/7512.jpg;https://fxhz.wgly.hangzhou.gov.cn/oss/whyx20221018/19/7512.jpg
9;205;体育设施;柳桥社区全民健身中心;杭州市柳桥街111号;杭州市;萧山区;120.28939;30.173322;全天开放;/whyx20221018/19/6896.jpg;https://fxhz.wgly.hangzhou.gov.cn/oss/whyx20221018/19/6896.jpg
17;219;机房/广播站;山水社区数字电视前端机房;杭州市富阳区鹿山街道山水社区江滨西大道358号;杭州市;富阳区;119.931831;30.010256;不开放;/whyx20221018/19/5624.jpg;https://fxhz.wgly.hangzhou.gov.cn/oss/whyx20221018/19/5624.jpg
13;209;老年活动中心;星河嘉园老年活动室;杭州市临平区东湖街道星河嘉园小区;杭州市;临平区;120.27509;30.424644;周一至周日08:00-17:00;/whyx20221018/19/5169.jpg;https://fxhz.wgly.hangzhou.gov.cn/oss/whyx20221018/19/5169.jpg
13;209;老年活动中心;众联村老年人活动中心;杭州市萧山区河上镇众联村众利自然村45号;杭州市;萧山区;120.18;29.95;周一至周日 7：00—17:00;/whyx20221018/18/7926.jpg;https://fxhz.wgly.hangzhou.gov.cn/oss/whyx20221018/18/7926.jpg
19;214;公共阅报栏;杭州市建德市莲花镇公共阅报栏;杭州市建德市莲花镇莲花路100号;杭州市;建德市;119.309918;29.569434;08:00-21:00;/whyx20221018/18/6000.jpg;https://fxhz.wgly.hangzhou.gov.cn/oss/whyx20221018/18/6000.jpg
3;200;文化活动室;下涯镇文化馆;建德市下涯镇文化馆;杭州市;建德市;119.396636;29.541729;周一至周日8：00-17:00;/whyx20221018/18/5876.jpg;https://fxhz.wgly.hangzhou.gov.cn/oss/whyx20221018/18/5876.jpg
13;209;老年活动中心;中间桥村老年活动中心;杭州市临安区潜川镇中间桥村;杭州市;临安区;119.348776;30.038338;全天开放;/whyx20221018/18/4835.jpg;https://fxhz.wgly.hangzhou.gov.cn/oss/whyx20221018/18/4835.jpg
15;211;文化礼堂;大同镇镇源村文化礼堂;杭州市建德市大同镇镇源村;杭州市;建德市;119.077177;29.252273;周一到周日09:00-17:00;/whyx20221018/18/16230.jpg;https://fxhz.wgly.hangzhou.gov.cn/oss/whyx20221018/18/16230.jpg
15;211;文化礼堂;新合乡引坑村文化礼堂;杭州市桐庐县新合乡引坑村;杭州市;桐庐县;119.916533;29.677212;09:00:00-17:00:43;/whyx20221018/18/14852.jpg;https://fxhz.wgly.hangzhou.gov.cn/oss/whyx20221018/18/14852.jpg
15;211;文化礼堂;转塘街道龙门坎村文化礼堂;杭州市西湖区转塘街道龙门坎村蛟龙庙28号;杭州市;西湖区;120.02691;30.194117;00:00:00 - 00:00:00;/whyx20221018/18/14591.jpg;https://fxhz.wgly.hangzhou.gov.cn/oss/whyx20221018/18/14591.jpg
1;198;农家书屋;东新街道万家星城社区图书室;杭州市拱墅区东新街道万家星城社区“星享”书房;杭州市;拱墅区;120.175374;30.279565;nan;/whyx20221018/17/8845.jpg;https://fxhz.wgly.hangzhou.gov.cn/oss/whyx20221018/17/8845.jpg
17;219;机房/广播站;发射塔;杭州市拱墅区环城北路139号;杭州市;拱墅区;120.177075;30.273899;不开放;/whyx20221018/17/8023.jpg;https://fxhz.wgly.hangzhou.gov.cn/oss/whyx20221018/17/8023.jpg
18;213;文化服务点/阅览室;公共数字文化服务点;杭州市拱墅区万通中心1幢103室;杭州市;拱墅区;120.146477;30.308289;nan;/whyx20221018/17/7981.jpg;https://fxhz.wgly.hangzhou.gov.cn/oss/whyx20221018/17/7981.jpg
16;212;文化家园;上保社区文化家园;杭州市西湖区北山街道上保社区体育场路593号3楼;杭州市;西湖区;120.150941;30.26825;周一至周五 9:00-17:03;/whyx20221018/17/7529.jpg;https://fxhz.wgly.hangzhou.gov.cn/oss/whyx20221018/17/7529.jpg
13;209;老年活动中心;新宇村老年活动中心;临平区运河街道新宇村6组姜石68号对面;杭州市;临平区;120.31692;30.513194;周一至周日8:30-17:00;/whyx20221018/17/5031.jpg;https://fxhz.wgly.hangzhou.gov.cn/oss/whyx20221018/17/5031.jpg
15;211;文化礼堂;新塘街道浙东村文化礼堂;杭州市萧山区新塘街道浙东村村委会三楼;杭州市;萧山区;120.311766;30.151998;周一至周日9:00-17:00;/whyx20221018/17/14817.jpg;https://fxhz.wgly.hangzhou.gov.cn/oss/whyx20221018/17/14817.jpg
1;198;农家书屋;三墩镇大港桥社区图书室;杭州市西湖区灯彩街与紫金港北路交汇处;杭州市;西湖区;120.075312;30.32339;周一至周五09:00-17:00;/whyx20221018/17/11414.jpg;https://fxhz.wgly.hangzhou.gov.cn/oss/whyx20221018/17/11414.jpg
16;212;文化家园;琴山下文化家园;杭州市萧山区琴山下文化家园;杭州市;萧山区;120.290449;30.137868;nan;/whyx20221018/16/8770.jpg;https://fxhz.wgly.hangzhou.gov.cn/oss/whyx20221018/16/8770.jpg
11;207;青少年宫;富阳区青少年宫;杭州市富阳区金苑路671号;杭州市;富阳区;119.925689;30.064018;08:30-17:00;/whyx20221018/16/7946.jpg;https://fxhz.wgly.hangzhou.gov.cn/oss/whyx20221018/16/7946.jpg
13;209;老年活动中心;伍村村老年活动中心;杭州市临安区潜川镇伍村村（中伍原村委会）;杭州市;临安区;120.268167;30.020019;全天开放;/whyx20221018/16/4815.jpg;https://fxhz.wgly.hangzhou.gov.cn/oss/whyx20221018/16/4815.jpg
15;211;文化礼堂;大同镇劳村文化礼堂;杭州市建德市大同镇劳村;杭州市;建德市;119.079597;29.303476;周一到周日09:00-17:00;/whyx20221018/16/16247.jpg;https://fxhz.wgly.hangzhou.gov.cn/oss/whyx20221018/16/16247.jpg
16;212;文化家园;九堡街道九堡社区文化家园;杭州市上城区九堡街道九堡社区文化家园活动中心;杭州市;上城区;120.279441;30.305756;09:00-11:00;/whyx20221018/15/8654.jpg;https://fxhz.wgly.hangzhou.gov.cn/oss/whyx20221018/15/8654.jpg
17;219;机房/广播站;机房;杭州市滨江区长河街道云端公寓商铺71-73号;杭州市;滨江区;120.18154;30.171059;不开放;/whyx20221018/15/8003.jpg;https://fxhz.wgly.hangzhou.gov.cn/oss/whyx20221018/15/8003.jpg
14;210;文体中心;下沙街道党群服务中心;杭州市钱塘区下沙街道海达南路555号;杭州市;钱塘区;120.324847;30.30223;周一至周日8:30-17:00;/whyx20221018/15/7680.jpg;https://fxhz.wgly.hangzhou.gov.cn/oss/whyx20221018/15/7680.jpg
13;209;老年活动中心;崇福社区居家养老中心;杭州市余杭区崇福社区居家养老中心;杭州市;余杭区;120.0369051;30.3738575;nan;/whyx20221018/14/9069.jpg;https://fxhz.wgly.hangzhou.gov.cn/oss/whyx20221018/14/9069.jpg
3;200;文化活动室;长寿社区文化活动室;杭州市拱墅区武林街道长寿社区文化活动室;杭州市;拱墅区;120.156247;30.26333;nan;/whyx20221018/14/8860.jpg;https://fxhz.wgly.hangzhou.gov.cn/oss/whyx20221018/14/8860.jpg
1;198;农家书屋;半山街道杭玻阔板桥社区图书室;杭州市拱墅区半山街道杭玻阔板桥社区图书室;杭州市;拱墅区;120.175236;30.351572;nan;/whyx20221018/14/8530.jpg;https://fxhz.wgly.hangzhou.gov.cn/oss/whyx20221018/14/8530.jpg
18;213;文化服务点/阅览室;公共数字文化服务点;杭州市康乐新村6-2-102;杭州市;西湖区;120.102034;30.276753;nan;/whyx20221018/14/7966.jpg;https://fxhz.wgly.hangzhou.gov.cn/oss/whyx20221018/14/7966.jpg
16;212;文化家园;紫科社区文化家园;杭州市西湖区三墩镇中海紫藤苑16-1-101紫;杭州市;西湖区;120.068088;30.324535;周一至周日9:00-16:30;/whyx20221018/14/7625.jpg;https://fxhz.wgly.hangzhou.gov.cn/oss/whyx20221018/14/7625.jpg
16;212;文化家园;贾家社区文化家园;杭州市临平区星桥街道星都路40号;杭州市;临平区;120.259469;30.383247;周一至周日08:30-11:00 14:00-5:30;/whyx20221018/14/5216.jpg;https://fxhz.wgly.hangzhou.gov.cn/oss/whyx20221018/14/5216.jpg
16;212;文化家园;钱农社区文化家园;杭州市萧山区宁围街道钱农西路76号钱农社区居委会;杭州市;萧山区;120.272736;30.25237;周一至周日08:30—16:30;/whyx20221018/13/8313.jpg;https://fxhz.wgly.hangzhou.gov.cn/oss/whyx20221018/13/8313.jpg
19;214;公共阅报栏;杭州市钱塘区新湾街道建华路新湾第二幼儿园前阅报栏;杭州市钱塘区新湾街道建华闸口路三官殿东南450米;杭州市;钱塘区;120.532009;30.291684;全天开放;/whyx20221018/13/7660.jpg;https://fxhz.wgly.hangzhou.gov.cn/oss/whyx20221018/13/7660.jpg
2;199;文博场馆;文昌镇民俗文化博物馆;杭州市淳安县文昌镇潭头村党群服务中心后面;杭州市;淳安县;119.20465;29.779947;08:30-17:00;/whyx20221018/13/6425.jpg;https://fxhz.wgly.hangzhou.gov.cn/oss/whyx20221018/13/6425.jpg
14;210;文体中心;龙岗镇文体中心;杭州市临安区龙岗镇龙岗大街127号;杭州市;临安区;119.135262;30.161332;08:30-20:30;/whyx20221018/13/4939.jpg;https://fxhz.wgly.hangzhou.gov.cn/oss/whyx20221018/13/4939.jpg
13;209;老年活动中心;塔山村居家养老服务中心;杭州市临安区潜川镇塔山村89号;杭州市;临安区;119.409947;30.097528;全天开放;/whyx20221018/13/4830.jpg;https://fxhz.wgly.hangzhou.gov.cn/oss/whyx20221018/13/4830.jpg
15;211;文化礼堂;大同镇朝阳村文化礼堂;杭州市建德市大同镇朝阳村;杭州市;建德市;119.117821;29.261367;周一到周日09:00-17:00;/whyx20221018/13/16262.jpg;https://fxhz.wgly.hangzhou.gov.cn/oss/whyx20221018/13/16262.jpg
15;211;文化礼堂;千岛湖镇宕里村文化礼堂;杭州市淳安县千岛湖镇宕里村;杭州市;淳安县;119.11386;29.619706;08:30-17:30;/whyx20221018/13/15401.jpg;https://fxhz.wgly.hangzhou.gov.cn/oss/whyx20221018/13/15401.jpg
15;211;文化礼堂;大源镇新关村文化礼堂;富阳区大源镇新关村;杭州市;富阳区;120.01121;29.95164;08:00-20:00;/whyx20221018/13/14857.jpg;https://fxhz.wgly.hangzhou.gov.cn/oss/whyx20221018/13/14857.jpg
3;200;文化活动室;和平苑社区综合文化服务中心;杭州市拱墅区和平苑社区综合文化服务中心;杭州市;拱墅区;120.1806683;30.27179919;nan;/whyx20221018/12/8547.jpg;https://fxhz.wgly.hangzhou.gov.cn/oss/whyx20221018/12/8547.jpg
18;213;文化服务点/阅览室;公共数字文化服务点;杭州市紫花路74号;杭州市;上城区;120.1672725;30.21490455;nan;/whyx20221018/12/7986.jpg;https://fxhz.wgly.hangzhou.gov.cn/oss/whyx20221018/12/7986.jpg
10;206;文化宫;建德市工人文化宫寿昌宫;建德市寿昌镇东昌路38号;杭州市;建德市;119.224127;29.357485;周一至周日8:30--20:00;/whyx20221018/12/5966.jpg;https://fxhz.wgly.hangzhou.gov.cn/oss/whyx20221018/12/5966.jpg
3;200;文化活动室;詹家埭社区文化活动室;杭州市萧山区临浦镇詹家埭社区文化活动室;杭州市;萧山区;120.2331609;30.04382814;nan;/whyx20221018/11/8993.jpg;https://fxhz.wgly.hangzhou.gov.cn/oss/whyx20221018/11/8993.jpg
3;200;文化活动室;荆山社区文化活动中心;杭州市余杭区荆山社区文化活动中心;杭州市;余杭区;120.027141;30.29139;nan;/whyx20221018/11/8283.jpg;https://fxhz.wgly.hangzhou.gov.cn/oss/whyx20221018/11/8283.jpg
9;205;体育设施;临安体育文化会展中心;杭州市临安区玲珑街道九州街599号;杭州市;临安区;119.695573;30.198993;09:00-21:00;/whyx20221018/11/4685.jpg;https://fxhz.wgly.hangzhou.gov.cn/oss/whyx20221018/11/4685.jpg
15;211;文化礼堂;大同镇三村村文化礼堂;杭州市建德市大同镇三村村会堂边自然村;杭州市;建德市;119.118017;29.303251;周一到周日09:00-17:00;/whyx20221018/11/16242.jpg;https://fxhz.wgly.hangzhou.gov.cn/oss/whyx20221018/11/16242.jpg
15;211;文化礼堂;衙前镇项漾村文化礼堂;杭州市萧山区衙前镇项漾村原三联小学;杭州市;萧山区;120.396753;30.164362;周一至周日9:00-17:00;/whyx20221018/11/14796.jpg;https://fxhz.wgly.hangzhou.gov.cn/oss/whyx20221018/11/14796.jpg
3;200;文化活动室;凤麟社区文化活动室;杭州市拱墅区武林街道凤麟社区文化活动室;杭州市;拱墅区;120.160071;30.263732;nan;/whyx20221018/10/8857.jpg;https://fxhz.wgly.hangzhou.gov.cn/oss/whyx20221018/10/8857.jpg
3;200;文化活动室;硅谷社区文化活动室;杭州市富阳区硅谷社区文化活动室;杭州市;富阳区;119.9727839;30.16499141;nan;/whyx20221018/10/8527.jpg;https://fxhz.wgly.hangzhou.gov.cn/oss/whyx20221018/10/8527.jpg
17;219;机房/广播站;临平山发射台;杭州市临平山;杭州市;余杭区;120.2977595;30.42433061;不开放;/whyx20221018/10/8035.jpg;https://fxhz.wgly.hangzhou.gov.cn/oss/whyx20221018/10/8035.jpg
2;199;文博场馆;杭南村乡村记忆馆;临平区运河街道杭南村杭南路8号东侧;杭州市;临平区;120.266087;30.485573;周六至周日 8:30-16:30;/whyx20221018/10/5043.jpg;https://fxhz.wgly.hangzhou.gov.cn/oss/whyx20221018/10/5043.jpg
2;199;文博场馆;余杭禹昊博物馆;杭州市余杭区塘栖镇塘栖路142号;杭州市;余杭区;120.077522;30.410242;周一至周日09:30-15:00;/whyx20221018/10/14548.jpg;https://fxhz.wgly.hangzhou.gov.cn/oss/whyx20221018/10/14548.jpg
1;198;农家书屋;常安镇景山村农家书屋;杭州市富阳区常安镇景山村;杭州市;富阳区;119.901666;29.832692;周一至周日09:00-17:00;/whyx20221018/10/12344.jpg;https://fxhz.wgly.hangzhou.gov.cn/oss/whyx20221018/10/12344.jpg
3;200;文化活动室;馒头山社区文化活动室;杭州市上城区馒头山社区文化活动室;杭州市;上城区;120.1635192;30.22790471;nan;/whyx20221018/1/8711.jpg;https://fxhz.wgly.hangzhou.gov.cn/oss/whyx20221018/1/8711.jpg
18;213;文化服务点/阅览室;桐庐县融媒体中心（桐庐广播电视台）;杭州市桐庐县城南街道学圣路730号;杭州市;桐庐县;119.702137;29.793383;nan;/whyx20221018/1/8027.jpg;https://fxhz.wgly.hangzhou.gov.cn/oss/whyx20221018/1/8027.jpg
12;208;儿童之家;三浦村儿童之家;杭州市萧山区进化镇三浦村泗化自然村;杭州市;萧山区;120.28227;29.984414;周一至周日08：00-16：00;/whyx20221018/1/6991.jpg;https://fxhz.wgly.hangzhou.gov.cn/oss/whyx20221018/1/6991.jpg
1;198;农家书屋;大洋镇图书分馆;杭州市建德市大洋镇大洋村村委会3楼;杭州市;建德市;119.507399;29.437334;周二、四、五08:00-11:00 13:00-17:00 周三、六、日08:00-11:00 13:30-17:30 18:00-21:00;/whyx20221018/1/11939.jpg;https://fxhz.wgly.hangzhou.gov.cn/oss/whyx20221018/1/11939.jpg
16;212;文化家园;东山弄社区文化家园;杭州市西湖区灵隐街道东山弄社区;杭州市;西湖区;120.1256435;30.25729853;nan;/whyx20221018/0/8473.jpg;https://fxhz.wgly.hangzhou.gov.cn/oss/whyx20221018/0/8473.jpg
11;207;青少年宫;萧山区青少年宫党湾分宫;杭州市萧山区政和路37号;杭州市;萧山区;120.549382;30.225789;nan;/whyx20221018/0/7861.jpg;https://fxhz.wgly.hangzhou.gov.cn/oss/whyx20221018/0/7861.jpg
19;214;公共阅报栏;萧山区红山农场宣传窗;杭州市萧山区红山农场萧清大道4001号;杭州市;萧山区;120.382023;30.229989;周一至周五9:00-20:30;/whyx20221018/0/7157.jpg;https://fxhz.wgly.hangzhou.gov.cn/oss/whyx20221018/0/7157.jpg
13;209;老年活动中心;西乐村老年人活动中心;杭州市临安区潜川镇西乐村;杭州市;临安区;119.392034;30.018759;待定;/whyx20221018/0/4819.jpg;https://fxhz.wgly.hangzhou.gov.cn/oss/whyx20221018/0/4819.jpg
15;211;文化礼堂;屏门乡圭川村文化礼堂;杭州市淳安县屏门乡圭川村堪头自然村;杭州市;淳安县;118.989634;29.897749;08:30-17:30;/whyx/ffd2d55fb0f245839e626fb275016d42.jpg;https://fxhz.wgly.hangzhou.gov.cn/oss/whyx/ffd2d55fb0f245839e626fb275016d42.jpg
16;212;文化家园;五云社区文化家园;杭州市西湖区转塘街道五云社区五云路西湖花园南苑对面;杭州市;西湖区;120.109803;30.181287;周一至周日8:30-16:30;/whyx/ff2f89f8fa0945ee907fe597006c381d.jpg;https://fxhz.wgly.hangzhou.gov.cn/oss/whyx/ff2f89f8fa0945ee907fe597006c381d.jpg
13;209;老年活动中心;庆和社区老年活动室;庆春苑15幢二楼;杭州市;上城区;120.191638;30.259296;周一至周五上午9：00-11:30，下午14:00-16:30;/whyx/ff1ba4e2d9a54af09b93e4a682ac7579.jpg;https://fxhz.wgly.hangzhou.gov.cn/oss/whyx/ff1ba4e2d9a54af09b93e4a682ac7579.jpg
14;210;文体中心;上官乡综合文化站;杭州市富阳区上官乡四堡村球拍产业园;杭州市;富阳区;119.979964;29.896079;周一至周日8:30-16:30;/whyx/fefb98ef9b874cc8b001e2c6caa221bb.jpg;https://fxhz.wgly.hangzhou.gov.cn/oss/whyx/fefb98ef9b874cc8b001e2c6caa221bb.jpg
16;212;文化家园;紫霞社区文化家园;杭州市西湖区转塘街道象山人家6幢;杭州市;西湖区;120.054317;30.146739;周一至周日9:00-16:30;/whyx/feef185669a848169f4dc6ebabe75ef3.jpg;https://fxhz.wgly.hangzhou.gov.cn/oss/whyx/feef185669a848169f4dc6ebabe75ef3.jpg
2;199;文博场馆;中国湿地博物馆;杭州市西湖区天目山路402号;杭州市;西湖区;120.087533;30.264153;周二至周日09:00-16:30;/whyx/fedea537618b4d03befe7f4a0cf05e74.png;https://fxhz.wgly.hangzhou.gov.cn/oss/whyx/fedea537618b4d03befe7f4a0cf05e74.png
1;198;农家书屋;钟山乡城下村农家书屋;杭州市桐庐县钟山乡城下村村委;杭州市;桐庐县;119.511889;29.754741;周一至周日08:00-11:30 13:00-16:30;/whyx/feb70c52a5bb43f9a54bf67a22c9087c.jpg;https://fxhz.wgly.hangzhou.gov.cn/oss/whyx/feb70c52a5bb43f9a54bf67a22c9087c.jpg
15;211;文化礼堂;梓桐镇富石村文化礼堂;杭州市淳安县梓桐镇富石村;杭州市;淳安县;118.801957;29.588436;春夏8:00-20:00秋冬8:00-20:00;/whyx/fe7034c07f574ff1baba0592486937d8.jpg;https://fxhz.wgly.hangzhou.gov.cn/oss/whyx/fe7034c07f574ff1baba0592486937d8.jpg
16;212;文化家园;宏湾社区文化家园;余杭区五常街道荆山湾路156号西溪璞园西北门;杭州市;余杭区;120.032988;30.235199;周一至周五09:00-18:00;/whyx/fe475efa8d2e41949236f91a05984638.jpg;https://fxhz.wgly.hangzhou.gov.cn/oss/whyx/fe475efa8d2e41949236f91a05984638.jpg
2;199;文博场馆;中共鸭兰村支部旧址;杭州市临平区崇贤街道鸭兰村;杭州市;临平区;120.141802;30.417806;周二至周日 8:30-16:30;/whyx/fe025b637b9b490f8ef84bf9b1d4ea7d.png;https://fxhz.wgly.hangzhou.gov.cn/oss/whyx/fe025b637b9b490f8ef84bf9b1d4ea7d.png
15;211;文化礼堂;大墅镇下坑村文化礼堂;杭州市淳安县大墅镇下坑村;杭州市;淳安县;118.762998;29.327354;08:00-16:00;/whyx/fdfba99217c640a29ec2083cb705a6f1.jpg;https://fxhz.wgly.hangzhou.gov.cn/oss/whyx/fdfba99217c640a29ec2083cb705a6f1.jpg
1;198;农家书屋;大墅镇西园村农家书屋;杭州市淳安县大墅镇西园村马岭脚;杭州市;淳安县;119.948675;30.392544;08:30-11:00;/whyx/fd8325a6e7e84b3c813eaf7effd9944b.jpg;https://fxhz.wgly.hangzhou.gov.cn/oss/whyx/fd8325a6e7e84b3c813eaf7effd9944b.jpg
15;211;文化礼堂;威坪镇蔗川村文化礼堂;杭州市淳安县威坪镇蔗川村;杭州市;淳安县;118.764541;29.777669;09:00-17:00;/whyx/fd77111a4fd6495988304b5b92ef8b1c.jpg;https://fxhz.wgly.hangzhou.gov.cn/oss/whyx/fd77111a4fd6495988304b5b92ef8b1c.jpg
1;198;农家书屋;丁兰街道建塘苑社区图书馆;杭州市上城区丁兰街道康华路552号;杭州市;上城区;120.208075;30.337832;07:00-15:00;/whyx/fd5e7295361a46afbf3e4f6f35204a0e.jpg;https://fxhz.wgly.hangzhou.gov.cn/oss/whyx/fd5e7295361a46afbf3e4f6f35204a0e.jpg
2;199;文博场馆;江南明清古建筑博物馆;杭州西溪国家湿地公园西区;杭州市;拱墅区;120.061159;30.255079;周一至周五;/whyx/fd40d5b364644e3eacf32f6f3e92aca0.png;https://fxhz.wgly.hangzhou.gov.cn/oss/whyx/fd40d5b364644e3eacf32f6f3e92aca0.png
2;199;文博场馆;大韩民国临时政府杭州旧址纪念馆;杭州市上城区长生路55号湖边村内;杭州市;上城区;120.161326;30.256184;周一至周日09:00-16:30;/whyx/fd1ccb876f8b4d458a08ae1589f2332d.png;https://fxhz.wgly.hangzhou.gov.cn/oss/whyx/fd1ccb876f8b4d458a08ae1589f2332d.png
16;212;文化家园;耀华社区文化家园;杭州市上城区望江街道衢江路130号;杭州市;上城区;120.198723;30.235593;周一至周日8:30-12:00,14:00-17:30;/whyx/fcf0fdd3b42d429eb168cc050f85b1dd.jpg;https://fxhz.wgly.hangzhou.gov.cn/oss/whyx/fcf0fdd3b42d429eb168cc050f85b1dd.jpg
16;212;文化家园;麦苗社区文化家园;杭州市上城区闸弄口街道麦苗社区三里亭路88号;杭州市;上城区;120.190779;30.297305;09:00-16:00;/whyx/fcb489dbd0fd483795fb34383731d6bc.jpg;https://fxhz.wgly.hangzhou.gov.cn/oss/whyx/fcb489dbd0fd483795fb34383731d6bc.jpg
2;199;文博场馆;于谦纪念馆;杭州市余杭区仁和街道普宁村村委附近;杭州市;余杭区;120.123701;30.429777;周一至周日08:30-17:00;/whyx/fc5b9cbeec0e4f9db93fd34bdc70292d.jpg;https://fxhz.wgly.hangzhou.gov.cn/oss/whyx/fc5b9cbeec0e4f9db93fd34bdc70292d.jpg
13;209;老年活动中心;三槐村老年人活动中心;桐庐县分水镇三槐村;杭州市;桐庐县;119.404353;29.98858;周一至周日8:00--16:30;/whyx/fc52388384a24aa087a054d59a5b1173.jpg;https://fxhz.wgly.hangzhou.gov.cn/oss/whyx/fc52388384a24aa087a054d59a5b1173.jpg
1;198;农家书屋;分水镇天英村农家书屋;杭州市桐庐县分水镇天英村天湖路与天英路交叉口;杭州市;桐庐县;119.420672;29.913061;周一至周日08:00-11:30；13:00-16:30;/whyx/fc477d86d0e74c3e8d351538b2a66ff3.jpg;https://fxhz.wgly.hangzhou.gov.cn/oss/whyx/fc477d86d0e74c3e8d351538b2a66ff3.jpg
2;199;文博场馆;萧山围垦历史陈列馆;杭州市萧山区党湾镇庆丰村迎晖路1号;杭州市;萧山区;120.551411;30.219649;周一至周六08：30-16：30;/whyx/fc3a68d3f308490f829b2c4191175927.png;https://fxhz.wgly.hangzhou.gov.cn/oss/whyx/fc3a68d3f308490f829b2c4191175927.png
16;212;文化家园;闲林街道甄家湾社区文化家园;余杭区闲林街道甄家湾社区雅兰苑商铺2幢101室;杭州市;余杭区;119.991575;30.234989;08:30-17:30;/whyx/fb37a853455c4a9c9b3c9b505b89e351.jpg;https://fxhz.wgly.hangzhou.gov.cn/oss/whyx/fb37a853455c4a9c9b3c9b505b89e351.jpg
16;212;文化家园;古荡小区文化家园;杭州市西湖区紫荆花路1号府苑新村文化活动中心;杭州市;西湖区;120.091915;30.286656;周一至周日9:00-17:00;/whyx/fb117a1a85dc48a5aaadc70beabea3f5.jpg;https://fxhz.wgly.hangzhou.gov.cn/oss/whyx/fb117a1a85dc48a5aaadc70beabea3f5.jpg
4;201;非遗馆;余杭区有财竹器具陈列室;杭州市余杭区百丈镇溪口村铺前50号;杭州市;余杭区;119.766513;30.486611;09:00-16:00;/whyx/fadfb598412d4d9896055f975a737a93.jpg;https://fxhz.wgly.hangzhou.gov.cn/oss/whyx/fadfb598412d4d9896055f975a737a93.jpg
15;211;文化礼堂;文昌镇卢家庄村文化礼堂;杭州市淳安县文昌镇卢家庄村;杭州市;淳安县;119.224475;29.809192;09:00-17:00;/whyx/fa68a927d48e48398e79ec804a534597.jpg;https://fxhz.wgly.hangzhou.gov.cn/oss/whyx/fa68a927d48e48398e79ec804a534597.jpg
1;198;农家书屋;钟山乡歌舞村农家书屋;杭州市桐庐县钟山乡歌舞村文化礼堂;杭州市;桐庐县;119.429764;29.791964;周一至周日08:00-11:30 13:00-16:30;/whyx/fa62b4b47627487290e83e91705209cd.jpg;https://fxhz.wgly.hangzhou.gov.cn/oss/whyx/fa62b4b47627487290e83e91705209cd.jpg
16;212;文化家园;三墩北社区文化家园;杭州市西湖区三墩镇金庄路303号;杭州市;西湖区;120.066471;30.341096;周一至周日8:30-16:30;/whyx/f9e52e40544d40928b18c9bb111b03b2.jpg;https://fxhz.wgly.hangzhou.gov.cn/oss/whyx/f9e52e40544d40928b18c9bb111b03b2.jpg
2;199;文博场馆;浙商博物馆;杭州市西湖区教工路149号;杭州市;西湖区;120.135197;30.285492;周一至周日09:00-17:00;/whyx/f9db0c4823f04265830d441b642cb90b.png;https://fxhz.wgly.hangzhou.gov.cn/oss/whyx/f9db0c4823f04265830d441b642cb90b.png
15;211;文化礼堂;仁和街道渔公桥村文化礼堂;杭州市余杭区渔公桥村委会;杭州市;余杭区;120.105253;30.472823;夏令时08:00-17:00 冬令时08:00-16:30;/whyx/f9c52f681bf047958bf51cd53f37415d.jpg;https://fxhz.wgly.hangzhou.gov.cn/oss/whyx/f9c52f681bf047958bf51cd53f37415d.jpg
14;210;文体中心;和睦街道综合文化站;莫干山路630号和睦新村11幢南;杭州市;拱墅区;120.124779;30.307908;08:00-17:00;/whyx/f93e392e3cab4f078aef191e77100430.jpg;https://fxhz.wgly.hangzhou.gov.cn/oss/whyx/f93e392e3cab4f078aef191e77100430.jpg
2;199;文博场馆;富春江水电博物馆;杭州市富阳区东洲街道大岭山路28号;杭州市;富阳区;119.976435;30.077279;nan;/whyx/f91ae3a69dfe4a708f78e0770673169d.png;https://fxhz.wgly.hangzhou.gov.cn/oss/whyx/f91ae3a69dfe4a708f78e0770673169d.png
15;211;文化礼堂;双浦镇兰溪口村文化礼堂;杭州市西湖区双浦镇兰溪口村;杭州市;西湖区;120.109966;30.118038;00:00:00-00:00:00;/whyx/f8a9835cc98c4eb29af96a2ce6455520.jpg;https://fxhz.wgly.hangzhou.gov.cn/oss/whyx/f8a9835cc98c4eb29af96a2ce6455520.jpg
16;212;文化家园;打铁关社区文化家园;杭州市拱墅区文晖街道光辉岁月公寓4幢3单元底层;杭州市;拱墅区;120.174729;30.2816;周一至周五8:00-20:00；周六至周日8:00-17:00;/whyx/f8984e0912ed4da284560947eb346075.jpg;https://fxhz.wgly.hangzhou.gov.cn/oss/whyx/f8984e0912ed4da284560947eb346075.jpg
1;198;农家书屋;黄湖镇吴四坊社区图书室;杭州市余杭区黄湖镇迂前南路157-5号;杭州市;余杭区;119.809352;30.445891;周一至周日09:00-16:30;/whyx/f780ce384afe4c76a8b2864fc7b77590.jpg;oooo1
16;212;文化家园;蓝孔雀社区文化家园;春雀街96号;杭州市;拱墅区;120.108138;30.305878;09:00-17:00;/whyx/f7565dddd2f046f4864272714c6e1055.jpg;https://fxhz.wgly.hangzhou.gov.cn/oss/whyx/f7565dddd2f046f4864272714c6e1055.jpg
2;199;文博场馆;颉德文化博物馆;杭州市余杭区临平人民大道好望休闲街;杭州市;余杭区;120.308659;30.41083;周一至周六9:00-17:00;/whyx/f6ceaac40ef64072aea448ca88a933a8.png;https://fxhz.wgly.hangzhou.gov.cn/oss/whyx/f6ceaac40ef64072aea448ca88a933a8.png
15;211;文化礼堂;中洲镇余家村文化礼堂;杭州市淳安县儒上线东南约284米;杭州市;淳安县;118.477498;29.460275;08:00-17:00;/whyx/f6c5e9c536ab48a9b8452675771d620b.jpg;https://fxhz.wgly.hangzhou.gov.cn/oss/whyx/f6c5e9c536ab48a9b8452675771d620b.jpg
13;209;老年活动中心;太平村老年活动中心;桐庐县分水镇太平村;杭州市;桐庐县;119.48888;30.056556;周一至周日8：30-16:30;/whyx/f6b2ba4568684420b86fc7a6b70157c5.jpg;https://fxhz.wgly.hangzhou.gov.cn/oss/whyx/f6b2ba4568684420b86fc7a6b70157c5.jpg
15;211;文化礼堂;胥口镇葛溪村文化礼堂;富阳区胥口镇葛溪村帮坎1号;杭州市;富阳区;119.68778;29.99223;08:00-20:00;/whyx/f68959e84818439bb16c39c0bbd1e9bc.jpg;https://fxhz.wgly.hangzhou.gov.cn/oss/whyx/f68959e84818439bb16c39c0bbd1e9bc.jpg
15;211;文化礼堂;姜家镇霞五村文化礼堂;杭州市淳安县姜家镇霞五村;杭州市;淳安县;118.62964;29.564779;08:00-18:00;/whyx/f5ff302b28ed49a1b0d2e64ca818ff57.jpg;https://fxhz.wgly.hangzhou.gov.cn/oss/whyx/f5ff302b28ed49a1b0d2e64ca818ff57.jpg
16;212;文化家园;双浦镇袁浦社区文化家园;杭州市西湖区双浦镇袁浦街165号;杭州市;西湖区;120.123194;30.111937;"周一至周日8:00-11:30;12:30-16:00";/whyx/f5e95f623f624b50bf2f3bb38516c145.jpg;https://fxhz.wgly.hangzhou.gov.cn/oss/whyx/f5e95f623f624b50bf2f3bb38516c145.jpg
1;198;农家书屋;胥口镇棠棣村农家书屋;杭州市富阳区胥口镇棠棣村委大楼;杭州市;富阳区;119.670451;29.978134;周一至周日08:00-20:00;/whyx/f5df6385514a4ecf9ae5e9267f1f081f.jpg;https://fxhz.wgly.hangzhou.gov.cn/oss/whyx/f5df6385514a4ecf9ae5e9267f1f081f.jpg
16;212;文化家园;文三社区文化家园;杭州市西湖区上宁新村小区内;杭州市;西湖区;120.143901;30.276187;周一至周五9:00-17:00;/whyx/f5b059231b4b4c2e97c5ba9dea530489.jpg;https://fxhz.wgly.hangzhou.gov.cn/oss/whyx/f5b059231b4b4c2e97c5ba9dea530489.jpg
15;211;文化礼堂;界首乡严家村文化礼堂;杭州市淳安县界首乡严家村;杭州市;淳安县;118.851251;29.551749;09:00-17:00;/whyx/f5ad768db867428ca0ead3823f961f0b.jpg;https://fxhz.wgly.hangzhou.gov.cn/oss/whyx/f5ad768db867428ca0ead3823f961f0b.jpg
2;199;文博场馆;杭州南宋官窑博物馆;杭州市上城区南复路60号;杭州市;上城区;120.155048;30.209606;周二至周日8:30—16:30（法定假日除外）;/whyx/f5ac6ea551e945b3a82c18d9adb721a5.png;https://fxhz.wgly.hangzhou.gov.cn/oss/whyx/f5ac6ea551e945b3a82c18d9adb721a5.png
8;204;科技馆;淳安县科技馆;杭州市淳安县千岛湖镇珍珠二路109号;杭州市;淳安县;119.110904;29.594728;09:00-16:30;/whyx/f5892456499a4d61945b228bc2e614bb.jpg;https://fxhz.wgly.hangzhou.gov.cn/oss/whyx/f5892456499a4d61945b228bc2e614bb.jpg
2;199;文博场馆;瓶窑陶艺馆;杭州市余杭区瓶窑镇瓶窑老街展遗街;杭州市;余杭区;119.966017;30.392316;周二至周日08:30-17:00(周一闭馆）;/whyx/f56655657db04801bb8b9dcde9431b04.jpg;https://fxhz.wgly.hangzhou.gov.cn/oss/whyx/f56655657db04801bb8b9dcde9431b04.jpg
16;212;文化家园;宝石社区文化家园;杭州市西湖区北山街道宝石新村8幢旁;杭州市;西湖区;120.147414;30.263972;周一至周五 9:00-17:00;/whyx/f4f683340ec846e6a0f82b1fcd80b139.jpg;https://fxhz.wgly.hangzhou.gov.cn/oss/whyx/f4f683340ec846e6a0f82b1fcd80b139.jpg
13;209;老年活动中心;仙宅村居家养老照料中心;余杭街道仙宅村农贸市场南;杭州市;余杭区;119.89532;30.310122;周一至周日08:30-16:30;/whyx/f4dac781afce44d685ba848c5b7c481a.jpg;https://fxhz.wgly.hangzhou.gov.cn/oss/whyx/f4dac781afce44d685ba848c5b7c481a.jpg
1;198;农家书屋;余杭街道溪塔村农家书屋;杭州市余杭区余杭街道溪塔村立新组宋家村34号;杭州市;余杭区;119.943832;30.28476;周一至周日08:30-20:00;/whyx/f4cb8d32cd3645c89d1639212818cb7f.jpg;https://fxhz.wgly.hangzhou.gov.cn/oss/whyx/f4cb8d32cd3645c89d1639212818cb7f.jpg
16;212;文化家园;彩霞岭社区文化家园;彩霞岭5号;杭州市;上城区;120.17215;30.231793;周一至周日8:30-12:3014:00-17:30;/whyx/f4a705c1251d455fa326697f8c6a4a7f.jpg;https://fxhz.wgly.hangzhou.gov.cn/oss/whyx/f4a705c1251d455fa326697f8c6a4a7f.jpg
14;210;文体中心;浪川乡综合文化站;淳安县浪川乡大联村21号;杭州市;淳安县;118.604809;29.492369;08:30-17:30;/whyx/f44a2c316bcf41c580765c41f7ba1a81.jpg;https://fxhz.wgly.hangzhou.gov.cn/oss/whyx/f44a2c316bcf41c580765c41f7ba1a81.jpg
2;199;文博场馆;淳安县千岛湖自然博物馆;杭州市淳安县千岛湖镇梦姑路158号;杭州市;淳安县;119.01301;29.594953;周一至周日08:30-16:30;/whyx/f42212ec82d2453badf365e1a2236643.png;https://fxhz.wgly.hangzhou.gov.cn/oss/whyx/f42212ec82d2453badf365e1a2236643.png
1;198;农家书屋;采荷街道夕照社区图书室;杭州市上城区采荷街道夕照社区夕照新村39幢4单元对面;杭州市;上城区;120.195;30.245;08:30-11:00;/whyx/f3e91455db7a413c8ad39f489764f604.jpg;https://fxhz.wgly.hangzhou.gov.cn/oss/whyx/f3e91455db7a413c8ad39f489764f604.jpg
15;211;文化礼堂;临岐镇左源村文化礼堂;杭州市淳安县临岐镇左源村卫生室东北侧100米;杭州市;淳安县;119.162157;29.841864;08:30-20:30;/whyx/f3e790669c23474289691f9f9ce56eee.jpg;https://fxhz.wgly.hangzhou.gov.cn/oss/whyx/f3e790669c23474289691f9f9ce56eee.jpg
2;199;文博场馆;汪馥泉故居;杭州市余杭区仁和街道东风村上纤埠8号民宅西侧;杭州市;余杭区;120.065979;30.428716;周一至周日08:30-17:00;/whyx/f3c2bea8310c4307b491b3a02f515f52.jpg;https://fxhz.wgly.hangzhou.gov.cn/oss/whyx/f3c2bea8310c4307b491b3a02f515f52.jpg
16;212;文化家园;上马塍社区文化家园;杭州市西湖区混堂巷13号旁上马塍社区办公室一楼;杭州市;西湖区;120.148445;30.276635;周一至周五 8:30-11:30，14:00-17:30;/whyx/f3baecb361e94c37a632cd4fb5cd8969.jpg;https://fxhz.wgly.hangzhou.gov.cn/oss/whyx/f3baecb361e94c37a632cd4fb5cd8969.jpg
9;205;体育设施;建华社区健身房;彭埠街道建华家苑7幢底商2号;杭州市;上城区;120.243665;30.29433;09:00-17:00;/whyx/f38541f8e30444bd91c1d1cebc7689f2.jpg;https://fxhz.wgly.hangzhou.gov.cn/oss/whyx/f38541f8e30444bd91c1d1cebc7689f2.jpg
16;212;文化家园;水月社区文化家园;杭州市西湖区城北商贸园40幢3楼;杭州市;西湖区;120.093533;30.312037;周一至周日9:00-16:30;/whyx/f31ff76309244203959e2e03ab62453a.jpg;https://fxhz.wgly.hangzhou.gov.cn/oss/whyx/f31ff76309244203959e2e03ab62453a.jpg
2;199;文博场馆;良渚玉雕馆;杭州市余杭区瓶窑镇瓶窑老街展遗街;杭州市;余杭区;119.970891;30.392692;周二至周日08:30-17:00(周一闭馆）;/whyx/f2bc2d4cc337441198d1a5d4df2ce72e.jpg;https://fxhz.wgly.hangzhou.gov.cn/oss/whyx/f2bc2d4cc337441198d1a5d4df2ce72e.jpg
2;199;文博场馆;潘天寿纪念馆;杭州南山路212号;杭州市;上城区;120.159423;30.242187;09:00-16:30;/whyx/f2657a695ebb46f389a8f0e617c498a8.png;https://fxhz.wgly.hangzhou.gov.cn/oss/whyx/f2657a695ebb46f389a8f0e617c498a8.png
1;198;农家书屋;文新街道德加社区图书室;杭州市西湖区文新街道文二西路369号;杭州市;西湖区;120.10342;30.280659;周一至周日10:00-20:00;/whyx/f2314f5d431a4c2283a6c10354241828.jpg;https://fxhz.wgly.hangzhou.gov.cn/oss/whyx/f2314f5d431a4c2283a6c10354241828.jpg
12;208;儿童之家;横溪社区儿童之家;余杭区中泰街道星未来云邸15-1号;杭州市;余杭区;119.925111;30.237897;08:30-17:00;/whyx/f1fb375a7d3445449a931bef345a95af.jpg;https://fxhz.wgly.hangzhou.gov.cn/oss/whyx/f1fb375a7d3445449a931bef345a95af.jpg
15;211;文化礼堂;威坪镇杜川村文化礼堂;杭州市淳安县威坪镇杜川村;杭州市;淳安县;118.802919;29.755654;08:00-17:00;/whyx/f1df214d003241edb0f2f498e768fb1f.jpg;https://fxhz.wgly.hangzhou.gov.cn/oss/whyx/f1df214d003241edb0f2f498e768fb1f.jpg
13;209;老年活动中心;赐璧村庙桥头老年活动室;杭州市余杭区黄湖镇赐璧村3组赐璧58号;杭州市;余杭区;119.843911;30.438971;周一至周日9:00-16:00;/whyx/f1399446d2da488782602217a5304ade.jpg;https://fxhz.wgly.hangzhou.gov.cn/oss/whyx/f1399446d2da488782602217a5304ade.jpg
2;199;文博场馆;浙江省博物馆子馆;杭州市孤山路25号;杭州市;拱墅区;120.143778;30.251243;周二至周日 9:00-17:00;/whyx/f1164ed72ef540338df82adccc0fb038.png;https://fxhz.wgly.hangzhou.gov.cn/oss/whyx/f1164ed72ef540338df82adccc0fb038.png
2;199;文博场馆;浙大大学西迁建德办学旧址（竺可桢旧居）;杭州市建德市府前街135号附近;杭州市;建德市;119.503224;29.542183;周一至周日8:30-17:00;/whyx/f0f2aed267ce47ca80ead0a2470fb4a0.png;https://fxhz.wgly.hangzhou.gov.cn/oss/whyx/f0f2aed267ce47ca80ead0a2470fb4a0.png
16;212;文化家园;嘉荷社区文化家园;杭州市西湖区嘉绿景苑东西园;杭州市;西湖区;120.098352;30.271152;周一至周日8:00-17:00;/whyx/f0ed170be9894806aa73570663c4ff75.jpg;https://fxhz.wgly.hangzhou.gov.cn/oss/whyx/f0ed170be9894806aa73570663c4ff75.jpg
9;205;体育设施;芝厦村体育场馆;富春江镇芝厦村;杭州市;桐庐县;119.615497;29.696163;全天开放;/whyx/f0ba0f72950e400fa281ce66099a381c.jpg;https://fxhz.wgly.hangzhou.gov.cn/oss/whyx/f0ba0f72950e400fa281ce66099a381c.jpg
15;211;文化礼堂;里商乡石湾村文化礼堂;杭州市淳安县里商乡石湾村;杭州市;淳安县;118.927944;29.399621;08:00-17:00;/whyx/f095f49312644cfd806d809dc3fcbff0.jpg;https://fxhz.wgly.hangzhou.gov.cn/oss/whyx/f095f49312644cfd806d809dc3fcbff0.jpg
14;210;文体中心;环山乡综合文化站;杭州市富阳区环山乡环二村回龙桥头8号;杭州市;富阳区;119.927751;29.927161;08:00-21:00;/whyx/f04cbb23074248d7bce27e2acfc7d95d.jpg;https://fxhz.wgly.hangzhou.gov.cn/oss/whyx/f04cbb23074248d7bce27e2acfc7d95d.jpg
16;212;文化家园;回龙雅苑文化家园;杭州市西湖区转塘街道回龙雅苑26幢29号商铺;杭州市;西湖区;120.105305;30.122523;周一至周日9:00-16:30;/whyx/f03e3c22478c46a99b2d0bb621d990fd.jpg;https://fxhz.wgly.hangzhou.gov.cn/oss/whyx/f03e3c22478c46a99b2d0bb621d990fd.jpg
2;199;文博场馆;楼曼文纪念馆;杭州市萧山区楼塔镇仁德弄16号;杭州市;萧山区;120.140117;29.912418;"9:00-11:00;13:00-16:00（周一、周二闭馆）";/whyx/f039c8f5c82a496b8c0048771977d8bf.png;https://fxhz.wgly.hangzhou.gov.cn/oss/whyx/f039c8f5c82a496b8c0048771977d8bf.png
15;211;文化礼堂;文昌镇富山村文化礼堂;杭州市淳安县文昌镇富山村;杭州市;淳安县;119.102649;29.780063;09:00-17:00;/whyx/efce44e3817c407ca72f1bb9e7c7c12a.jpg;https://fxhz.wgly.hangzhou.gov.cn/oss/whyx/efce44e3817c407ca72f1bb9e7c7c12a.jpg
16;212;文化家园;杨公社区文化家园;杨公佳苑8幢3楼;杭州市;上城区;120.271044;30.300756;08:30-11:00;/whyx/efb885fca71448919bcee98373810d91.jpg;https://fxhz.wgly.hangzhou.gov.cn/oss/whyx/efb885fca71448919bcee98373810d91.jpg
15;211;文化礼堂;大源镇亭山村文化礼堂;富阳区大源镇亭山村塔堰;杭州市;富阳区;120.00696;29.99709;08:00-20:00;/whyx/efb23970539145cbb652f3abf0de9d54.jpg;https://fxhz.wgly.hangzhou.gov.cn/oss/whyx/efb23970539145cbb652f3abf0de9d54.jpg
14;210;文体中心;场口镇综合文化站;浙江省杭州市富阳区场口镇创业街4楼;杭州市;富阳区;119.873818;29.910917;周一至周日8：00-20：00;/whyx/ef606d6ed5b849a9a3a1911bd4a68566.jpg;https://fxhz.wgly.hangzhou.gov.cn/oss/whyx/ef606d6ed5b849a9a3a1911bd4a68566.jpg
15;211;文化礼堂;左口乡龙源庄村文化礼堂;杭州市淳安县左口乡龙源庄村;杭州市;淳安县;119.073402;29.702012;春夏8:30-16:30秋冬9:00-17:00;/whyx/ef57b8e30baa4d5e898f34a7f7486168.jpg;https://fxhz.wgly.hangzhou.gov.cn/oss/whyx/ef57b8e30baa4d5e898f34a7f7486168.jpg
2;199;文博场馆;蚕桑文化馆;杭州市余杭区瓶窑镇瓶窑老街展遗街;杭州市;余杭区;119.96789;30.39462;周二至周日08:30-17:00(周一闭馆）;/whyx/ef555d4d7f0a48859ce632c591753e67.png;https://fxhz.wgly.hangzhou.gov.cn/oss/whyx/ef555d4d7f0a48859ce632c591753e67.png
15;211;文化礼堂;威坪镇驮岭脚村文化礼堂;杭州市淳安县威坪镇驮岭脚;杭州市;淳安县;118.783823;29.734746;08:00-17:00;/whyx/ef4de7b02e9d4663b5c07b3dab2ec712.jpg;https://fxhz.wgly.hangzhou.gov.cn/oss/whyx/ef4de7b02e9d4663b5c07b3dab2ec712.jpg
15;211;文化礼堂;金峰乡安上村文化礼堂;杭州市淳安县金峰乡安上村;杭州市;淳安县;118.962839;29.715658;08:30-17:00;/whyx/eede8de8d2a943c290501ad83e396b4e.jpg;https://fxhz.wgly.hangzhou.gov.cn/oss/whyx/eede8de8d2a943c290501ad83e396b4e.jpg
2;199;文博场馆;长河革命历史纪念馆;杭州市滨江区长江中路26附近;杭州市;滨江区;120.194367;30.171016;09:00-16:30;/whyx/edfdb2104196454bb498a7498db02be2.png;https://fxhz.wgly.hangzhou.gov.cn/oss/whyx/edfdb2104196454bb498a7498db02be2.png
14;210;文体中心;龙门镇文体服务站;富阳区龙门镇龙门古镇景区;杭州市;富阳区;119.950754;29.900962;周一至周日8：30-16：30;/whyx/eda0d0d4ddfc4e05bc392a60c122618d.jpg;https://fxhz.wgly.hangzhou.gov.cn/oss/whyx/eda0d0d4ddfc4e05bc392a60c122618d.jpg
15;211;文化礼堂;威坪镇汪川村文化礼堂;杭州市淳安县威坪镇汪川村;杭州市;淳安县;118.783823;29.734746;08:00-17:00;/whyx/ed925f33cf574e30aa3f71eb647f7439.jpg;https://fxhz.wgly.hangzhou.gov.cn/oss/whyx/ed925f33cf574e30aa3f71eb647f7439.jpg
16;212;文化家园;杨家牌楼社区文化家园;杭州市西湖区杨家牌楼126号;杭州市;西湖区;120.072462;30.243447;周一至周日8:30-17:00;/whyx/ed5ee38af0b94147b485f0be0921d435.jpg;https://fxhz.wgly.hangzhou.gov.cn/oss/whyx/ed5ee38af0b94147b485f0be0921d435.jpg
2;199;文博场馆;临江兵团知青文化园;杭州市钱塘区临江街道纬五路4418号;杭州市;钱塘区;120.576764;30.297053;08:30-16:30;/whyx/ed59b39ba10f431b8fb0873dbdaede1e.png;https://fxhz.wgly.hangzhou.gov.cn/oss/whyx/ed59b39ba10f431b8fb0873dbdaede1e.png
15;211;文化礼堂;屏门乡屏门村文化礼堂;杭州市淳安县屏门乡屏门村178号;杭州市;淳安县;119.037813;29.867079;08:00-17:30;/whyx/ed1943abcf18432abe8f57c68d5239a6.jpg;https://fxhz.wgly.hangzhou.gov.cn/oss/whyx/ed1943abcf18432abe8f57c68d5239a6.jpg
4;201;非遗馆;竹上居竹刻工作室;杭州市余杭区百丈镇溪口村洋桥头33号;杭州市;余杭区;119.782968;30.478634;09:00-16:00;/whyx/ece3e2ede6ed420cad444384b679b43e.jpg;https://fxhz.wgly.hangzhou.gov.cn/oss/whyx/ece3e2ede6ed420cad444384b679b43e.jpg
15;211;文化礼堂;仁和街道洛阳村文化礼堂;杭州市余杭区仁和街道洛阳村文化礼堂;杭州市;余杭区;120.081627,;30.414987;夏令时08:00-16:30 冬令时08:30-16:00;/whyx/ecd573eab7bd44d0b5d461ef500d39ef.jpg;https://fxhz.wgly.hangzhou.gov.cn/oss/whyx/ecd573eab7bd44d0b5d461ef500d39ef.jpg
16;212;文化家园;海汇社区文化家园;余杭区五常街道余杭塘路与聚橙路交叉口万科星空6幢物业用房;杭州市;余杭区;120.025981;30.290751;周一至周五09:00-15:00;/whyx/ec6c5c9af60143a79f410968c1bf714a.jpg;https://fxhz.wgly.hangzhou.gov.cn/oss/whyx/ec6c5c9af60143a79f410968c1bf714a.jpg
2;199;文博场馆;千鹤妇女教育基地;杭州市建德市梅城镇千鹤村下高自然村;杭州市;建德市;119.468725;29.539743;周二至周日8：30—16：30（闭馆前半个小时停止入馆）;/whyx/ec37931eed8c45328fb4439427eac915.png;https://fxhz.wgly.hangzhou.gov.cn/oss/whyx/ec37931eed8c45328fb4439427eac915.png
16;212;文化家园;自在城西苑社区文化家园;杭州市西湖区三墩镇紫宣路与欣然街交叉口自在城西苑社区;杭州市;西湖区;120.068413;30.330436;周一至周日9:00-17:00;/whyx/eb875ae77f434f00a924803b10afca24.jpg;https://fxhz.wgly.hangzhou.gov.cn/oss/whyx/eb875ae77f434f00a924803b10afca24.jpg
